[{"id":0,"street":"Industriestr.","houseNumber":34,"zip":49565,"city":"Bramsche","lat":52.45137,"lon":7.965408,"brand":"","features":"fuelBonus'\r\n'mtsk'\r\n'fastLane","mtsk-id":"af12209d-6a10-419f-aa6b-bca5e804d5fc","fuelBonus":"{\"APP_ONLY\":{\"pointsPerLiter\":10,\"pointsPerLiterP4G\":10},\"DONGLE\":{\"pointsPerLiter\":20,\"pointsPerLiterP4G\":20}}","partnerName":"Thomas Lex GmbH","normalized brand":"LEX"},{"id":1,"street":"Döberner Str.","houseNumber":20,"zip":3149,"city":"Forst","lat":51.7163,"lon":14.615,"brand":"AGIP","features":"fuelBonus'\r\n'mtsk'\r\n'fastLane","mtsk-id":"320288c7-e143-472d-9c1e-afcaee44e0dc","fuelBonus":"{\"APP_ONLY\":{\"pointsPerLiter\":10,\"pointsPerLiterP4G\":10},\"DONGLE\":{\"pointsPerLiter\":20,\"pointsPerLiterP4G\":20}}","partnerName":"Q1 Energie AG","normalized brand":"Agip"},{"id":2,"street":"Kreillerstr.","houseNumber":220,"zip":81825,"city":"München","lat":48.12126164,"lon":11.66370821,"brand":"ALLGUTH","features":"mtsk'\r\n'fuelBonus'\r\n'fastLane","mtsk-id":"67693691-5653-44b1-9c0f-1151ddc9ea40","fuelBonus":"{\"APP_ONLY\":{\"pointsPerLiter\":10,\"pointsPerLiterP4G\":10},\"DONGLE\":{\"pointsPerLiter\":20,\"pointsPerLiterP4G\":20}}","partnerName":"ALLGUTH GmbH","normalized brand":"Allguth"},{"id":3,"street":"Von-Kahr-Str.","houseNumber":1,"zip":80997,"city":"München","lat":48.17871,"lon":11.48684,"brand":"ALLGUTH","features":"mtsk'\r\n'fuelBonus'\r\n'fastLane","mtsk-id":"4b7e7978-b9ac-4013-9c28-c6afbfd4cb2d","fuelBonus":"{\"APP_ONLY\":{\"pointsPerLiter\":10,\"pointsPerLiterP4G\":10},\"DONGLE\":{\"pointsPerLiter\":20,\"pointsPerLiterP4G\":20}}","partnerName":"ALLGUTH GmbH","normalized brand":"Allguth"},{"id":4,"street":"Münchener Str.","houseNumber":17,"zip":86899,"city":"Landsberg","lat":48.05179,"lon":10.89277,"brand":"ALLGUTH","features":"mtsk'\r\n'fuelBonus'\r\n'fastLane","mtsk-id":"15e3172e-6b83-4558-90c8-f59ea7c58142","fuelBonus":"{\"APP_ONLY\":{\"pointsPerLiter\":10,\"pointsPerLiterP4G\":10},\"DONGLE\":{\"pointsPerLiter\":20,\"pointsPerLiterP4G\":20}}","partnerName":"ALLGUTH GmbH","normalized brand":"Allguth"},{"id":5,"street":"Münchner Str.","houseNumber":146,"zip":85757,"city":"Karlsfeld","lat":48.22675,"lon":11.46493,"brand":"ALLGUTH","features":"mtsk'\r\n'fuelBonus'\r\n'fastLane","mtsk-id":"22ad5946-78de-4c03-8b3f-cb7bc0bf1c4d","fuelBonus":"{\"APP_ONLY\":{\"pointsPerLiter\":10,\"pointsPerLiterP4G\":10},\"DONGLE\":{\"pointsPerLiter\":20,\"pointsPerLiterP4G\":20}}","partnerName":"ALLGUTH GmbH","normalized brand":"Allguth"},{"id":6,"street":"Bodenseestr.","houseNumber":231,"zip":81243,"city":"München","lat":48.142944,"lon":11.424927,"brand":"ALLGUTH","features":"mtsk'\r\n'fuelBonus'\r\n'fastLane","mtsk-id":"620ba28e-edf4-43d7-bca3-eb0612952475","fuelBonus":"{\"APP_ONLY\":{\"pointsPerLiter\":10,\"pointsPerLiterP4G\":10},\"DONGLE\":{\"pointsPerLiter\":20,\"pointsPerLiterP4G\":20}}","partnerName":"ALLGUTH GmbH","normalized brand":"Allguth"},{"id":7,"street":"Chiemgaustr.","houseNumber":185,"zip":81549,"city":"München","lat":48.1092938,"lon":11.60826266,"brand":"ALLGUTH","features":"mtsk'\r\n'fuelBonus'\r\n'fastLane","mtsk-id":"1f4d9e78-38d8-45a5-84d0-2d6758380a1f","fuelBonus":"{\"APP_ONLY\":{\"pointsPerLiter\":10,\"pointsPerLiterP4G\":10},\"DONGLE\":{\"pointsPerLiter\":20,\"pointsPerLiterP4G\":20}}","partnerName":"ALLGUTH GmbH","normalized brand":"Allguth"},{"id":8,"street":"Fürstenrieder Str.","houseNumber":210,"zip":81377,"city":"München","lat":48.12086844,"lon":11.50208473,"brand":"ALLGUTH","features":"mtsk'\r\n'fuelBonus'\r\n'fastLane","mtsk-id":"2ba871b9-634a-4b92-9b5c-5c3efda57077","fuelBonus":"{\"APP_ONLY\":{\"pointsPerLiter\":10,\"pointsPerLiterP4G\":10},\"DONGLE\":{\"pointsPerLiter\":20,\"pointsPerLiterP4G\":20}}","partnerName":"ALLGUTH GmbH","normalized brand":"Allguth"},{"id":9,"street":"Fürstenrieder Str.","houseNumber":175,"zip":81377,"city":"München","lat":48.11966328,"lon":11.50326167,"brand":"ALLGUTH","features":"mtsk'\r\n'fastLane'\r\n'fuelBonus","mtsk-id":"3118018a-15fe-4594-b75a-42d451037ff0","fuelBonus":"{\"APP_ONLY\":{\"pointsPerLiter\":10,\"pointsPerLiterP4G\":10},\"DONGLE\":{\"pointsPerLiter\":20,\"pointsPerLiterP4G\":20}}","partnerName":"ALLGUTH GmbH","normalized brand":"Allguth"},{"id":10,"street":"Boschetsrieder Str.","houseNumber":139,"zip":81379,"city":"München","lat":48.097958,"lon":11.511889,"brand":"ALLGUTH","features":"mtsk'\r\n'fuelBonus'\r\n'fastLane","mtsk-id":"430f6f71-72cb-4996-9d4b-bb12d1793a92","fuelBonus":"{\"APP_ONLY\":{\"pointsPerLiter\":10,\"pointsPerLiterP4G\":10},\"DONGLE\":{\"pointsPerLiter\":20,\"pointsPerLiterP4G\":20}}","partnerName":"ALLGUTH GmbH","normalized brand":"Allguth"},{"id":11,"street":"Landsberger Str.","houseNumber":90,"zip":82205,"city":"Gilching","lat":48.09449,"lon":11.283,"brand":"ALLGUTH","features":"mtsk'\r\n'fuelBonus'\r\n'fastLane","mtsk-id":"4ca27b13-2a7f-454d-a159-5907e83b1e24","fuelBonus":"{\"APP_ONLY\":{\"pointsPerLiter\":10,\"pointsPerLiterP4G\":10},\"DONGLE\":{\"pointsPerLiter\":20,\"pointsPerLiterP4G\":20}}","partnerName":"ALLGUTH GmbH","normalized brand":"Allguth"},{"id":12,"street":"Kreillerstr.","houseNumber":219,"zip":81825,"city":"München","lat":48.12208742,"lon":11.66427362,"brand":"ALLGUTH","features":"mtsk'\r\n'fuelBonus'\r\n'fastLane","mtsk-id":"435c2e50-cc83-4620-9abc-0e972d7050d1","fuelBonus":"{\"APP_ONLY\":{\"pointsPerLiter\":10,\"pointsPerLiterP4G\":10},\"DONGLE\":{\"pointsPerLiter\":20,\"pointsPerLiterP4G\":20}}","partnerName":"ALLGUTH GmbH","normalized brand":"Allguth"},{"id":13,"street":"Dieselstr.","houseNumber":4,"zip":85716,"city":"Unterschleißheim","lat":48.28227903,"lon":11.57283068,"brand":"ALLGUTH","features":"mtsk'\r\n'fuelBonus'\r\n'fastLane","mtsk-id":"345b76b2-e4f6-4914-a3c8-0d1e29a082b5","fuelBonus":"{\"APP_ONLY\":{\"pointsPerLiter\":10,\"pointsPerLiterP4G\":10},\"DONGLE\":{\"pointsPerLiter\":20,\"pointsPerLiterP4G\":20}}","partnerName":"ALLGUTH GmbH","normalized brand":"Allguth"},{"id":14,"street":"Georg-Brauchle-Ring","houseNumber":30,"zip":80992,"city":"München","lat":48.17673866,"lon":11.53541708,"brand":"ALLGUTH","features":"mtsk'\r\n'fuelBonus'\r\n'fastLane","mtsk-id":"1b2de9d7-f360-4af8-a563-749a44418a27","fuelBonus":"{\"APP_ONLY\":{\"pointsPerLiter\":10,\"pointsPerLiterP4G\":10},\"DONGLE\":{\"pointsPerLiter\":20,\"pointsPerLiterP4G\":20}}","partnerName":"ALLGUTH GmbH","normalized brand":"Allguth"},{"id":15,"street":"Obere Bahnhofstr.","houseNumber":58,"zip":82110,"city":"Germering","lat":48.12987,"lon":11.35939,"brand":"ALLGUTH","features":"mtsk'\r\n'fuelBonus'\r\n'fastLane","mtsk-id":"9706a9e2-8632-4811-b56c-d3ac77042342","fuelBonus":"{\"APP_ONLY\":{\"pointsPerLiter\":10,\"pointsPerLiterP4G\":10},\"DONGLE\":{\"pointsPerLiter\":20,\"pointsPerLiterP4G\":20}}","partnerName":"ALLGUTH GmbH","normalized brand":"Allguth"},{"id":16,"street":"Geiselbullacher Str.","houseNumber":7,"zip":82140,"city":"Olching","lat":48.22542377,"lon":11.3343559,"brand":"ALLGUTH","features":"mtsk'\r\n'fuelBonus'\r\n'fastLane","mtsk-id":"6efb6909-7a8d-4e5d-ae70-1ce84dba7d7c","fuelBonus":"{\"APP_ONLY\":{\"pointsPerLiter\":10,\"pointsPerLiterP4G\":10},\"DONGLE\":{\"pointsPerLiter\":20,\"pointsPerLiterP4G\":20}}","partnerName":"ALLGUTH GmbH","normalized brand":"Allguth"},{"id":17,"street":"Hauptstr.","houseNumber":24,"zip":85664,"city":"Hohenlinden","lat":48.1558408,"lon":11.99895322,"brand":"ALLGUTH","features":"mtsk'\r\n'fuelBonus'\r\n'fastLane","mtsk-id":"53a40ec8-4a9c-459f-812d-27b64f0805ee","fuelBonus":"{\"APP_ONLY\":{\"pointsPerLiter\":10,\"pointsPerLiterP4G\":10},\"DONGLE\":{\"pointsPerLiter\":20,\"pointsPerLiterP4G\":20}}","partnerName":"ALLGUTH GmbH","normalized brand":"Allguth"},{"id":18,"street":"Kufsteiner Str.","houseNumber":124,"zip":83026,"city":"Rosenheim","lat":47.8390678,"lon":12.119953,"brand":"ALLGUTH","features":"mtsk'\r\n'fuelBonus'\r\n'fastLane","mtsk-id":"96915c76-348d-4dbc-9ce9-81dbd9bf2f8c","fuelBonus":"{\"APP_ONLY\":{\"pointsPerLiter\":10,\"pointsPerLiterP4G\":10},\"DONGLE\":{\"pointsPerLiter\":20,\"pointsPerLiterP4G\":20}}","partnerName":"ALLGUTH GmbH","normalized brand":"Allguth"},{"id":19,"street":"Leutstettener Str.","houseNumber":17,"zip":82319,"city":"Starnberg","lat":48.005279,"lon":11.349703,"brand":"ALLGUTH","features":"mtsk'\r\n'fuelBonus'\r\n'fastLane","mtsk-id":"340f434d-d973-48cd-930e-fd36bb46d124","fuelBonus":"{\"APP_ONLY\":{\"pointsPerLiter\":10,\"pointsPerLiterP4G\":10},\"DONGLE\":{\"pointsPerLiter\":20,\"pointsPerLiterP4G\":20}}","partnerName":"ALLGUTH GmbH","normalized brand":"Allguth"},{"id":20,"street":"Münchener Str.","houseNumber":173,"zip":85051,"city":"Ingolstadt","lat":48.73523,"lon":11.43851,"brand":"ALLGUTH","features":"mtsk'\r\n'fuelBonus'\r\n'fastLane","mtsk-id":"4a5e76bd-e0bd-4b30-a70b-84a6dfece345","fuelBonus":"{\"APP_ONLY\":{\"pointsPerLiter\":10,\"pointsPerLiterP4G\":10},\"DONGLE\":{\"pointsPerLiter\":20,\"pointsPerLiterP4G\":20}}","partnerName":"ALLGUTH GmbH","normalized brand":"Allguth"},{"id":21,"street":"Am Neubruch","houseNumber":7,"zip":80997,"city":"München","lat":48.192463,"lon":11.499939,"brand":"ALLGUTH","features":"mtsk'\r\n'fuelBonus'\r\n'fastLane","mtsk-id":"9f32a2f0-7ebc-4dcc-b8e3-48640824b30b","fuelBonus":"{\"APP_ONLY\":{\"pointsPerLiter\":10,\"pointsPerLiterP4G\":10},\"DONGLE\":{\"pointsPerLiter\":20,\"pointsPerLiterP4G\":20}}","partnerName":"ALLGUTH GmbH","normalized brand":"Allguth"},{"id":22,"street":"Dieselstr.","houseNumber":100,"zip":85774,"city":"Unterföhring","lat":48.1803522,"lon":11.65458441,"brand":"ALLGUTH","features":"mtsk'\r\n'fuelBonus'\r\n'fastLane","mtsk-id":"11fd3e93-6c6e-43a5-baca-57260c10093c","fuelBonus":"{\"APP_ONLY\":{\"pointsPerLiter\":10,\"pointsPerLiterP4G\":10},\"DONGLE\":{\"pointsPerLiter\":20,\"pointsPerLiterP4G\":20}}","partnerName":"ALLGUTH GmbH","normalized brand":"Allguth"},{"id":23,"street":"Triebstr.","houseNumber":35,"zip":80993,"city":"München","lat":48.18741615,"lon":11.53452337,"brand":"ALLGUTH","features":"mtsk'\r\n'fuelBonus'\r\n'fastLane","mtsk-id":"0271f0fc-65ed-4725-a922-57eec615195b","fuelBonus":"{\"APP_ONLY\":{\"pointsPerLiter\":10,\"pointsPerLiterP4G\":10},\"DONGLE\":{\"pointsPerLiter\":20,\"pointsPerLiterP4G\":20}}","partnerName":"ALLGUTH GmbH","normalized brand":"Allguth"},{"id":24,"street":"Maarweg","houseNumber":126,"zip":50825,"city":"Köln","lat":50.94309,"lon":6.898796,"brand":"ARAL","features":"mtsk'\r\n'fuelBonus'\r\n'fastLane","mtsk-id":"62a2fdf4-602e-4e49-b398-c7242da31987","fuelBonus":"{\"APP_ONLY\":{\"pointsPerLiter\":10,\"pointsPerLiterP4G\":10},\"DONGLE\":{\"pointsPerLiter\":20,\"pointsPerLiterP4G\":20}}","partnerName":"Wilhelm Kleffmann KG","normalized brand":"Aral"},{"id":25,"street":"Kötzschenbroder Str.","houseNumber":193,"zip":1139,"city":"Dresden","lat":51.0926,"lon":13.6705008,"brand":"ARAL","features":"mtsk'\r\n'fuelBonus'\r\n'fastLane","mtsk-id":"367b78a9-7c3f-47c9-8e8d-5723b343444c","fuelBonus":"{\"APP_ONLY\":{\"pointsPerLiter\":10,\"pointsPerLiterP4G\":10},\"DONGLE\":{\"pointsPerLiter\":20,\"pointsPerLiterP4G\":20}}","partnerName":"Adolf Präg GmbH & Co. KG","normalized brand":"ARAL"},{"id":26,"street":"Augsburger Str.","houseNumber":42,"zip":86381,"city":"Krumbach","lat":48.2439,"lon":10.3724051,"brand":"ARAL","features":"fastLane'\r\n'mtsk'\r\n'fuelBonus","mtsk-id":"f03287fd-782a-4d6c-91a2-68fe6008d6b3","fuelBonus":"{\"APP_ONLY\":{\"pointsPerLiter\":10,\"pointsPerLiterP4G\":10},\"DONGLE\":{\"pointsPerLiter\":20,\"pointsPerLiterP4G\":20}}","partnerName":"Adolf Präg GmbH & Co. KG","normalized brand":"ARAL"},{"id":27,"street":"Oskar-Arnold-Str.","houseNumber":14,"zip":8056,"city":"Zwickau","lat":50.7065353,"lon":12.5010939,"brand":"ARAL","features":"fastLane'\r\n'fuelBonus'\r\n'mtsk","mtsk-id":"1048ccbc-2c5f-46c8-8e4a-d5380f8c4552","fuelBonus":"{\"APP_ONLY\":{\"pointsPerLiter\":10,\"pointsPerLiterP4G\":10},\"DONGLE\":{\"pointsPerLiter\":20,\"pointsPerLiterP4G\":20}}","partnerName":"Adolf Präg GmbH & Co. KG","normalized brand":"ARAL"},{"id":28,"street":"Am Südpark","houseNumber":2,"zip":86633,"city":"Neuburg","lat":48.72019,"lon":11.172039,"brand":"ARAL","features":"mtsk'\r\n'fuelBonus'\r\n'fastLane","mtsk-id":"4147006d-1bbd-4b8e-8749-5a6777fc043c","fuelBonus":"{\"APP_ONLY\":{\"pointsPerLiter\":10,\"pointsPerLiterP4G\":10},\"DONGLE\":{\"pointsPerLiter\":20,\"pointsPerLiterP4G\":20}}","partnerName":"Adolf Präg GmbH & Co. KG","normalized brand":"ARAL"},{"id":29,"street":"Äußere-Kanal-Str.","houseNumber":90,"zip":50827,"city":"Köln","lat":50.9585342,"lon":6.905212,"brand":"ARAL","features":"mtsk'\r\n'fuelBonus'\r\n'fastLane","mtsk-id":"86743cec-3b18-4c86-a213-000a133380cc","fuelBonus":"{\"APP_ONLY\":{\"pointsPerLiter\":10,\"pointsPerLiterP4G\":10},\"DONGLE\":{\"pointsPerLiter\":20,\"pointsPerLiterP4G\":20}}","partnerName":"Wilhelm Kleffmann KG","normalized brand":"Aral"},{"id":30,"street":"Zeller Str.","houseNumber":15,"zip":73235,"city":"Weilheim","lat":48.6203728,"lon":9.540233,"brand":"ARAL","features":"fastLane'\r\n'mtsk'\r\n'fuelBonus","mtsk-id":"910bc144-ef5c-4629-86ed-5460d0c6dd1b","fuelBonus":"{\"APP_ONLY\":{\"pointsPerLiter\":10,\"pointsPerLiterP4G\":10},\"DONGLE\":{\"pointsPerLiter\":20,\"pointsPerLiterP4G\":20}}","partnerName":"Adolf Präg GmbH & Co. KG","normalized brand":"ARAL"},{"id":31,"street":"Leonberger Str.","houseNumber":76,"zip":71272,"city":"Renningen","lat":48.7679749,"lon":8.944295,"brand":"ARAL","features":"mtsk'\r\n'fuelBonus'\r\n'fastLane","mtsk-id":"8cc72050-52fe-4020-b3a7-25ca502b4ede","fuelBonus":"{\"APP_ONLY\":{\"pointsPerLiter\":10,\"pointsPerLiterP4G\":10},\"DONGLE\":{\"pointsPerLiter\":20,\"pointsPerLiterP4G\":20}}","partnerName":"Adolf Präg GmbH & Co. KG","normalized brand":"PRÄG"},{"id":32,"street":"Kölner Str.","houseNumber":36,"zip":50226,"city":"Frechen","lat":50.91059,"lon":6.817882,"brand":"ARAL","features":"mtsk'\r\n'fuelBonus'\r\n'fastLane","mtsk-id":"d8c0829a-a543-4db9-b45c-387b6ab73cf3","fuelBonus":"{\"APP_ONLY\":{\"pointsPerLiter\":10,\"pointsPerLiterP4G\":10},\"DONGLE\":{\"pointsPerLiter\":20,\"pointsPerLiterP4G\":20}}","partnerName":"Wilhelm Kleffmann KG","normalized brand":"Aral"},{"id":33,"street":"Nebelhornstr.","houseNumber":8,"zip":87719,"city":"Mindelheim","lat":48.0360832,"lon":10.5013714,"brand":"ARAL","features":"mtsk'\r\n'fuelBonus'\r\n'fastLane","mtsk-id":"48854a67-5208-469c-a999-ce263b29d0f3","fuelBonus":"{\"APP_ONLY\":{\"pointsPerLiter\":10,\"pointsPerLiterP4G\":10},\"DONGLE\":{\"pointsPerLiter\":20,\"pointsPerLiterP4G\":20}}","partnerName":"Adolf Präg GmbH & Co. KG","normalized brand":"PRÄG"},{"id":34,"street":"Brücker Landstr.","houseNumber":22,"zip":14806,"city":"Belzig","lat":52.1447,"lon":12.6128559,"brand":"ARAL","features":"fuelBonus'\r\n'mtsk'\r\n'fastLane","mtsk-id":"696c4bbc-b69c-4254-9cd3-6d86d1e128fc","fuelBonus":"{\"APP_ONLY\":{\"pointsPerLiter\":10,\"pointsPerLiterP4G\":10},\"DONGLE\":{\"pointsPerLiter\":20,\"pointsPerLiterP4G\":20}}","partnerName":"Q1 Energie AG","normalized brand":"Aral"},{"id":35,"street":"Ulmer Str.","houseNumber":19,"zip":89257,"city":"Illertissen","lat":48.22506,"lon":10.1026344,"brand":"ARAL","features":"fastLane'\r\n'mtsk'\r\n'fuelBonus","mtsk-id":"f8500775-9362-49eb-89b3-4fc22c16514c","fuelBonus":"{\"APP_ONLY\":{\"pointsPerLiter\":10,\"pointsPerLiterP4G\":10},\"DONGLE\":{\"pointsPerLiter\":20,\"pointsPerLiterP4G\":20}}","partnerName":"Adolf Präg GmbH & Co. KG","normalized brand":"ARAL"},{"id":36,"street":"Edisonstr.","houseNumber":14,"zip":86199,"city":"Augsburg","lat":48.344738,"lon":10.8852787,"brand":"ARAL","features":"mtsk'\r\n'fuelBonus'\r\n'fastLane","mtsk-id":"4f0760d6-d851-4e55-8f5c-89afa42298bf","fuelBonus":"{\"APP_ONLY\":{\"pointsPerLiter\":10,\"pointsPerLiterP4G\":10},\"DONGLE\":{\"pointsPerLiter\":20,\"pointsPerLiterP4G\":20}}","partnerName":"Adolf Präg GmbH & Co. KG","normalized brand":"Aral"},{"id":37,"street":"Dieskaustr.","houseNumber":483,"zip":4249,"city":"Leipzig","lat":51.27281,"lon":12.3083773,"brand":"ARAL","features":"fastLane'\r\n'mtsk'\r\n'fuelBonus","mtsk-id":"d7d31c1d-0b41-451c-9b46-ac01542d98fc","fuelBonus":"{\"APP_ONLY\":{\"pointsPerLiter\":10,\"pointsPerLiterP4G\":10},\"DONGLE\":{\"pointsPerLiter\":20,\"pointsPerLiterP4G\":20}}","partnerName":"Adolf Präg GmbH & Co. KG","normalized brand":"ARAL"},{"id":38,"street":"Stuttgarter Str.","houseNumber":85,"zip":73061,"city":"Ebersbach A. D. Fils","lat":48.7137,"lon":9.513178,"brand":"ARAL","features":"fastLane'\r\n'mtsk'\r\n'fuelBonus","mtsk-id":"64d9e72f-6327-4257-98bd-d0fbe75d4eee","fuelBonus":"{\"APP_ONLY\":{\"pointsPerLiter\":10,\"pointsPerLiterP4G\":10},\"DONGLE\":{\"pointsPerLiter\":20,\"pointsPerLiterP4G\":20}}","partnerName":"Adolf Präg GmbH & Co. KG","normalized brand":"ARAL"},{"id":39,"street":"Colditzer Str.","houseNumber":7,"zip":9306,"city":"Rochlitz","lat":51.06115,"lon":12.7868071,"brand":"ARAL","features":"mtsk'\r\n'fuelBonus'\r\n'fastLane","mtsk-id":"9886775e-3859-43ea-9df0-1574a525cd4d","fuelBonus":"{\"APP_ONLY\":{\"pointsPerLiter\":10,\"pointsPerLiterP4G\":10},\"DONGLE\":{\"pointsPerLiter\":20,\"pointsPerLiterP4G\":20}}","partnerName":"Adolf Präg GmbH & Co. KG","normalized brand":"ARAL"},{"id":40,"street":"Görschlitzer Str.","houseNumber":7,"zip":4849,"city":"Bad Düben","lat":51.58997,"lon":12.6019516,"brand":"ARAL","features":"mtsk'\r\n'fuelBonus'\r\n'fastLane","mtsk-id":"c2f66b26-5506-48b8-8781-e0de47abfeff","fuelBonus":"{\"APP_ONLY\":{\"pointsPerLiter\":10,\"pointsPerLiterP4G\":10},\"DONGLE\":{\"pointsPerLiter\":20,\"pointsPerLiterP4G\":20}}","partnerName":"Adolf Präg GmbH & Co. KG","normalized brand":"ARAL"},{"id":41,"street":"Robert-Bosch-Str.","houseNumber":40,"zip":88131,"city":"Lindau","lat":47.5476952,"lon":9.728079,"brand":"ARAL","features":"mtsk'\r\n'fuelBonus'\r\n'fastLane","mtsk-id":"14b6a691-0ded-4e20-b21f-fae1e0dc015a","fuelBonus":"{\"APP_ONLY\":{\"pointsPerLiter\":10,\"pointsPerLiterP4G\":10},\"DONGLE\":{\"pointsPerLiter\":20,\"pointsPerLiterP4G\":20}}","partnerName":"Adolf Präg GmbH & Co. KG","normalized brand":"Aral"},{"id":42,"street":"Plohnbachstr.","houseNumber":2,"zip":8485,"city":"Lengenfeld","lat":50.5752678,"lon":12.3869753,"brand":"ARAL","features":"fastLane'\r\n'mtsk'\r\n'fuelBonus","mtsk-id":"dae5f89f-f3e4-438d-92fe-cc4b59857cd1","fuelBonus":"{\"APP_ONLY\":{\"pointsPerLiter\":10,\"pointsPerLiterP4G\":10},\"DONGLE\":{\"pointsPerLiter\":20,\"pointsPerLiterP4G\":20}}","partnerName":"Adolf Präg GmbH & Co. KG","normalized brand":"ARAL"},{"id":43,"street":"Amselstr.","houseNumber":50,"zip":75180,"city":"Pforzheim","lat":48.86179,"lon":8.661948,"brand":"ARAL","features":"mtsk'\r\n'fuelBonus'\r\n'fastLane","mtsk-id":"0dc6786a-38e4-4576-8848-335975dea87b","fuelBonus":"{\"APP_ONLY\":{\"pointsPerLiter\":10,\"pointsPerLiterP4G\":10},\"DONGLE\":{\"pointsPerLiter\":20,\"pointsPerLiterP4G\":20}}","partnerName":"Adolf Präg GmbH & Co. KG","normalized brand":"ARAL"},{"id":44,"street":"Kaufbeurer Str.","houseNumber":5,"zip":86830,"city":"Schwabmünchen","lat":48.17588,"lon":10.7576876,"brand":"ARAL","features":"mtsk'\r\n'fuelBonus'\r\n'fastLane","mtsk-id":"22f89edd-02d9-41a0-af67-7a05f8a987dd","fuelBonus":"{\"APP_ONLY\":{\"pointsPerLiter\":10,\"pointsPerLiterP4G\":10},\"DONGLE\":{\"pointsPerLiter\":20,\"pointsPerLiterP4G\":20}}","partnerName":"Adolf Präg GmbH & Co. KG","normalized brand":"PRÄG"},{"id":45,"street":"Stuttgarter Str.","houseNumber":54,"zip":75417,"city":"Mühlacker","lat":48.94653,"lon":8.846422,"brand":"ARAL","features":"fastLane'\r\n'mtsk'\r\n'fuelBonus","mtsk-id":"71864314-7d77-48b8-9d88-b11ef6cd7c7e","fuelBonus":"{\"APP_ONLY\":{\"pointsPerLiter\":10,\"pointsPerLiterP4G\":10},\"DONGLE\":{\"pointsPerLiter\":20,\"pointsPerLiterP4G\":20}}","partnerName":"Adolf Präg GmbH & Co. KG","normalized brand":"ARAL"},{"id":46,"street":"Bautzner Landstr.","houseNumber":246,"zip":1328,"city":"Dresden Ot Weißig","lat":51.0603523,"lon":13.8747025,"brand":"ARAL","features":"mtsk'\r\n'fuelBonus'\r\n'fastLane","mtsk-id":"8ae88d9f-0f06-492f-a456-f0e7c3ab7526","fuelBonus":"{\"APP_ONLY\":{\"pointsPerLiter\":10,\"pointsPerLiterP4G\":10},\"DONGLE\":{\"pointsPerLiter\":20,\"pointsPerLiterP4G\":20}}","partnerName":"Adolf Präg GmbH & Co. KG","normalized brand":"ARAL"},{"id":47,"street":"Mindelheimer Str.","houseNumber":19,"zip":87772,"city":"Pfaffenhausen","lat":48.1203651,"lon":10.4620152,"brand":"ARAL","features":"fastLane'\r\n'mtsk'\r\n'fuelBonus","mtsk-id":"64b71ebf-8ef0-4d59-9dc4-bfd93c11d99f","fuelBonus":"{\"APP_ONLY\":{\"pointsPerLiter\":10,\"pointsPerLiterP4G\":10},\"DONGLE\":{\"pointsPerLiter\":20,\"pointsPerLiterP4G\":20}}","partnerName":"Adolf Präg GmbH & Co. KG","normalized brand":"ARAL"},{"id":48,"street":"Wasseralfinger Str.","houseNumber":66,"zip":73434,"city":"Aalen-Fachsenfeld","lat":48.8784866,"lon":10.0499964,"brand":"ARAL","features":"mtsk'\r\n'fuelBonus'\r\n'fastLane","mtsk-id":"9f67379b-68a5-4cdd-903c-bb497d7d5849","fuelBonus":"{\"APP_ONLY\":{\"pointsPerLiter\":10,\"pointsPerLiterP4G\":10},\"DONGLE\":{\"pointsPerLiter\":20,\"pointsPerLiterP4G\":20}}","partnerName":"Adolf Präg GmbH & Co. KG","normalized brand":"ARAL"},{"id":49,"street":"Weißenfelser Str.","houseNumber":12,"zip":6686,"city":"Lützen","lat":51.25175726,"lon":12.13799787,"brand":"ARAL","features":"fastLane'\r\n'mtsk'\r\n'fuelBonus","mtsk-id":"18de0a63-b132-467d-a629-37a5d62ba50d","fuelBonus":"{\"APP_ONLY\":{\"pointsPerLiter\":10,\"pointsPerLiterP4G\":10},\"DONGLE\":{\"pointsPerLiter\":20,\"pointsPerLiterP4G\":20}}","partnerName":"Adolf Präg GmbH & Co. KG","normalized brand":"ARAL"},{"id":50,"street":"Bezirksstr.","houseNumber":16,"zip":67122,"city":"Altrip","lat":49.434967,"lon":8.484531,"brand":"ARAL","features":"mtsk'\r\n'fuelBonus'\r\n'fastLane","mtsk-id":"a4885036-aac6-4d7b-8c8d-51257a86c29d","fuelBonus":"{\"APP_ONLY\":{\"pointsPerLiter\":10,\"pointsPerLiterP4G\":10},\"DONGLE\":{\"pointsPerLiter\":20,\"pointsPerLiterP4G\":20}}","partnerName":"Adolf Präg GmbH & Co. KG","normalized brand":"ARAL"},{"id":51,"street":"Landsberger Str.","houseNumber":20,"zip":86807,"city":"Buchloe","lat":48.03594,"lon":10.7324829,"brand":"ARAL","features":"mtsk'\r\n'fuelBonus'\r\n'fastLane","mtsk-id":"1d6486b7-0b9a-41f7-9f1f-f33055b681cd","fuelBonus":"{\"APP_ONLY\":{\"pointsPerLiter\":10,\"pointsPerLiterP4G\":10},\"DONGLE\":{\"pointsPerLiter\":20,\"pointsPerLiterP4G\":20}}","partnerName":"Adolf Präg GmbH & Co. KG","normalized brand":"PRÄG"},{"id":52,"street":"Barmer Str.","houseNumber":44,"zip":58332,"city":"Schwelm","lat":51.2806053,"lon":7.278696,"brand":"ARAL","features":"fuelBonus'\r\n'mtsk'\r\n'fastLane","mtsk-id":"ee3c51a1-a56c-45cb-9715-9b5b164c8b96","fuelBonus":"{\"APP_ONLY\":{\"pointsPerLiter\":10,\"pointsPerLiterP4G\":10},\"DONGLE\":{\"pointsPerLiter\":20,\"pointsPerLiterP4G\":20}}","partnerName":"Q1 Energie AG","normalized brand":"Aral"},{"id":53,"street":"Lindenstr.","houseNumber":1,"zip":89284,"city":"Pfaffenhofen","lat":48.3587,"lon":10.1601477,"brand":"ARAL","features":"fastLane'\r\n'mtsk'\r\n'fuelBonus","mtsk-id":"b6d86fdd-9e4c-45a5-9c2c-be4dbdd11984","fuelBonus":"{\"APP_ONLY\":{\"pointsPerLiter\":10,\"pointsPerLiterP4G\":10},\"DONGLE\":{\"pointsPerLiter\":20,\"pointsPerLiterP4G\":20}}","partnerName":"Adolf Präg GmbH & Co. KG","normalized brand":"ARAL"},{"id":54,"street":"Buxheimer Str.","houseNumber":113,"zip":87700,"city":"Memmingen","lat":47.9916878,"lon":10.1606226,"brand":"ARAL","features":"mtsk'\r\n'fuelBonus'\r\n'fastLane","mtsk-id":"a895e735-3559-452b-bf4a-d80142e5aa3a","fuelBonus":"{\"APP_ONLY\":{\"pointsPerLiter\":10,\"pointsPerLiterP4G\":10},\"DONGLE\":{\"pointsPerLiter\":20,\"pointsPerLiterP4G\":20}}","partnerName":"Adolf Präg GmbH & Co. KG","normalized brand":"ARAL"},{"id":55,"street":"Greizer Str.","houseNumber":1,"zip":8412,"city":"Werdau","lat":50.7235,"lon":12.3742332,"brand":"ARAL","features":"fastLane'\r\n'mtsk'\r\n'fuelBonus","mtsk-id":"4a17fd29-3033-43f7-8815-032c9e46f113","fuelBonus":"{\"APP_ONLY\":{\"pointsPerLiter\":10,\"pointsPerLiterP4G\":10},\"DONGLE\":{\"pointsPerLiter\":20,\"pointsPerLiterP4G\":20}}","partnerName":"Adolf Präg GmbH & Co. KG","normalized brand":"ARAL"},{"id":56,"street":"Schneeberger Str.","houseNumber":30,"zip":8309,"city":"Eibenstock","lat":50.5013,"lon":12.6031008,"brand":"ARAL","features":"fastLane'\r\n'mtsk'\r\n'fuelBonus","mtsk-id":"437a650c-d757-4418-901c-52a06e7b6238","fuelBonus":"{\"APP_ONLY\":{\"pointsPerLiter\":10,\"pointsPerLiterP4G\":10},\"DONGLE\":{\"pointsPerLiter\":20,\"pointsPerLiterP4G\":20}}","partnerName":"Adolf Präg GmbH & Co. KG","normalized brand":"ARAL"},{"id":57,"street":"Günzburger Str.","houseNumber":23,"zip":89362,"city":"Offingen","lat":48.47852,"lon":10.3630524,"brand":"ARAL","features":"mtsk'\r\n'fuelBonus'\r\n'fastLane","mtsk-id":"fae2f4a0-2510-43bc-8a5c-d0d88ff19a9f","fuelBonus":"{\"APP_ONLY\":{\"pointsPerLiter\":10,\"pointsPerLiterP4G\":10},\"DONGLE\":{\"pointsPerLiter\":20,\"pointsPerLiterP4G\":20}}","partnerName":"Adolf Präg GmbH & Co. KG","normalized brand":"ARAL"},{"id":58,"street":"Bahnhofstr.","houseNumber":44,"zip":88175,"city":"Scheidegg","lat":47.58478,"lon":9.854433,"brand":"ARAL","features":"mtsk'\r\n'fuelBonus'\r\n'fastLane","mtsk-id":"f013c45d-a701-4cb1-89a8-607480db81b3","fuelBonus":"{\"APP_ONLY\":{\"pointsPerLiter\":10,\"pointsPerLiterP4G\":10},\"DONGLE\":{\"pointsPerLiter\":20,\"pointsPerLiterP4G\":20}}","partnerName":"Adolf Präg GmbH & Co. KG","normalized brand":"ARAL"},{"id":59,"street":"Werner-Von-Siemens-Str.","houseNumber":3,"zip":83301,"city":"Traunreut","lat":47.96632,"lon":12.5915632,"brand":"ARAL","features":"fastLane'\r\n'mtsk'\r\n'fuelBonus","mtsk-id":"ed2fae24-143e-473e-bbaf-0d403c7915b0","fuelBonus":"{\"APP_ONLY\":{\"pointsPerLiter\":10,\"pointsPerLiterP4G\":10},\"DONGLE\":{\"pointsPerLiter\":20,\"pointsPerLiterP4G\":20}}","partnerName":"Adolf Präg GmbH & Co. KG","normalized brand":"ARAL"},{"id":60,"street":"Landsberger Str.","houseNumber":2,"zip":86836,"city":"Graben","lat":48.1986732,"lon":10.8539486,"brand":"ARAL","features":"fastLane'\r\n'mtsk'\r\n'fuelBonus","mtsk-id":"c3524a94-dc97-4ed5-876f-1a96f86d2652","fuelBonus":"{\"APP_ONLY\":{\"pointsPerLiter\":10,\"pointsPerLiterP4G\":10},\"DONGLE\":{\"pointsPerLiter\":20,\"pointsPerLiterP4G\":20}}","partnerName":"Adolf Präg GmbH & Co. KG","normalized brand":"ARAL"},{"id":61,"street":"Günzburger Str.","houseNumber":55,"zip":89335,"city":"Ichenhausen","lat":48.374,"lon":10.3113012,"brand":"ARAL","features":"fastLane'\r\n'mtsk'\r\n'fuelBonus","mtsk-id":"1a073b3a-3d2f-428d-9250-bbf3805c15e3","fuelBonus":"{\"APP_ONLY\":{\"pointsPerLiter\":10,\"pointsPerLiterP4G\":10},\"DONGLE\":{\"pointsPerLiter\":20,\"pointsPerLiterP4G\":20}}","partnerName":"Adolf Präg GmbH & Co. KG","normalized brand":"ARAL"},{"id":62,"street":"Berliner Str.","houseNumber":111,"zip":51063,"city":"Köln","lat":50.9738,"lon":7.012554,"brand":"ARAL","features":"fuelBonus'\r\n'mtsk'\r\n'fastLane","mtsk-id":"5ac634f3-02dc-47fb-bc15-71e021e8fbf4","fuelBonus":"{\"APP_ONLY\":{\"pointsPerLiter\":10,\"pointsPerLiterP4G\":10},\"DONGLE\":{\"pointsPerLiter\":20,\"pointsPerLiterP4G\":20}}","partnerName":"Wilhelm Kleffmann KG","normalized brand":"Aral"},{"id":63,"street":"König-Ludwig-Str.","houseNumber":2,"zip":87645,"city":"Schwangau","lat":47.5793266,"lon":10.7419415,"brand":"ARAL","features":"fastLane'\r\n'mtsk'\r\n'fuelBonus","mtsk-id":"8762ca69-1068-4721-ac69-92bece02dd9c","fuelBonus":"{\"APP_ONLY\":{\"pointsPerLiter\":10,\"pointsPerLiterP4G\":10},\"DONGLE\":{\"pointsPerLiter\":20,\"pointsPerLiterP4G\":20}}","partnerName":"Adolf Präg GmbH & Co. KG","normalized brand":"ARAL"},{"id":64,"street":"Altenberger Str.","houseNumber":93,"zip":42929,"city":"Wermelskirchen","lat":51.091156,"lon":7.186871,"brand":"ARAL","features":"mtsk'\r\n'fuelBonus'\r\n'fastLane","mtsk-id":"c779937b-90c2-480e-9836-9110c0874466","fuelBonus":"{\"APP_ONLY\":{\"pointsPerLiter\":10,\"pointsPerLiterP4G\":10},\"DONGLE\":{\"pointsPerLiter\":20,\"pointsPerLiterP4G\":20}}","partnerName":"Wilhelm Kleffmann KG","normalized brand":"Aral"},{"id":65,"street":"Lindenstr.","houseNumber":2,"zip":9241,"city":"Mühlau","lat":50.8985672,"lon":12.7742615,"brand":"ARAL","features":"fastLane'\r\n'mtsk'\r\n'fuelBonus","mtsk-id":"b240a9d8-791f-4b80-93c9-fc65138485df","fuelBonus":"{\"APP_ONLY\":{\"pointsPerLiter\":10,\"pointsPerLiterP4G\":10},\"DONGLE\":{\"pointsPerLiter\":20,\"pointsPerLiterP4G\":20}}","partnerName":"Adolf Präg GmbH & Co. KG","normalized brand":"ARAL"},{"id":66,"street":"Beuchaer Str.","houseNumber":73,"zip":4821,"city":"Brandis","lat":51.3299141,"lon":12.5928259,"brand":"ARAL","features":"mtsk'\r\n'fuelBonus'\r\n'fastLane","mtsk-id":"41d0da1c-cbc2-4d21-b5eb-9f9990ff3e38","fuelBonus":"{\"APP_ONLY\":{\"pointsPerLiter\":10,\"pointsPerLiterP4G\":10},\"DONGLE\":{\"pointsPerLiter\":20,\"pointsPerLiterP4G\":20}}","partnerName":"Adolf Präg GmbH & Co. KG","normalized brand":"ARAL"},{"id":67,"street":"Bahnhofstr.","houseNumber":57,"zip":52388,"city":"Nörvenich","lat":50.8097343,"lon":6.636635,"brand":"ARAL","features":"mtsk'\r\n'fuelBonus'\r\n'fastLane","mtsk-id":"b86ee3cd-f5be-4e74-92fe-c5206a4d3f3e","fuelBonus":"{\"APP_ONLY\":{\"pointsPerLiter\":10,\"pointsPerLiterP4G\":10},\"DONGLE\":{\"pointsPerLiter\":20,\"pointsPerLiterP4G\":20}}","partnerName":"Wilhelm Kleffmann KG","normalized brand":"Aral"},{"id":68,"street":"Kurt-Schumacher-Damm","houseNumber":12,"zip":49078,"city":"Osnabrück","lat":52.2706223,"lon":8.024833,"brand":"ARAL","features":"mtsk'\r\n'fuelBonus'\r\n'fastLane","mtsk-id":"8a5b2591-8821-4a36-9c82-4828c61cba29","fuelBonus":"{\"APP_ONLY\":{\"pointsPerLiter\":10,\"pointsPerLiterP4G\":10},\"DONGLE\":{\"pointsPerLiter\":20,\"pointsPerLiterP4G\":20}}","partnerName":"Q1 Energie AG","normalized brand":"Aral"},{"id":69,"street":"Pasinger Str.","houseNumber":50,"zip":82166,"city":"Gräfelfing","lat":48.1181,"lon":11.44267,"brand":"ARAL","features":"mtsk'\r\n'fuelBonus'\r\n'fastLane","mtsk-id":"63b147a8-dccc-4bdb-bf00-8bde0dcecd10","fuelBonus":"{\"APP_ONLY\":{\"pointsPerLiter\":10,\"pointsPerLiterP4G\":10},\"DONGLE\":{\"pointsPerLiter\":20,\"pointsPerLiterP4G\":20}}","partnerName":"Adolf Präg GmbH & Co. KG","normalized brand":"Aral"},{"id":70,"street":"Neckaraue","houseNumber":2,"zip":71686,"city":"Remseck","lat":48.8901978,"lon":9.271213,"brand":"ARAL","features":"mtsk'\r\n'fuelBonus'\r\n'fastLane","mtsk-id":"f04a7bef-a1ac-4ff2-a72b-f5ad8875dc98","fuelBonus":"{\"APP_ONLY\":{\"pointsPerLiter\":10,\"pointsPerLiterP4G\":10},\"DONGLE\":{\"pointsPerLiter\":20,\"pointsPerLiterP4G\":20}}","partnerName":"Adolf Präg GmbH & Co. KG","normalized brand":"PRÄG"},{"id":71,"street":"Bottroper Str.","houseNumber":298,"zip":45356,"city":"Essen","lat":51.4843674,"lon":6.975781,"brand":"ARAL","features":"fuelBonus'\r\n'mtsk'\r\n'fastLane","mtsk-id":"646ad98b-435a-49f6-b33b-12b0ff37b15f","fuelBonus":"{\"APP_ONLY\":{\"pointsPerLiter\":10,\"pointsPerLiterP4G\":10},\"DONGLE\":{\"pointsPerLiter\":20,\"pointsPerLiterP4G\":20}}","partnerName":"Q1 Energie AG","normalized brand":"Aral"},{"id":72,"street":"Haunstetter Str.","houseNumber":75,"zip":86161,"city":"Augsburg","lat":48.3462753,"lon":10.905344,"brand":"ARAL","features":"mtsk'\r\n'fuelBonus'\r\n'fastLane","mtsk-id":"71734f3a-bc67-4bfc-ad1c-a1ee1b73b7e3","fuelBonus":"{\"APP_ONLY\":{\"pointsPerLiter\":10,\"pointsPerLiterP4G\":10},\"DONGLE\":{\"pointsPerLiter\":20,\"pointsPerLiterP4G\":20}}","partnerName":"Adolf Präg GmbH & Co. KG","normalized brand":"Aral"},{"id":73,"street":"Augsburger Str.","houseNumber":32,"zip":87600,"city":"Kaufbeuren","lat":47.88454,"lon":10.6367121,"brand":"ARAL","features":"fastLane'\r\n'mtsk'\r\n'fuelBonus","mtsk-id":"64c8fc51-5476-4dbb-b7b3-b553ad84639a","fuelBonus":"{\"APP_ONLY\":{\"pointsPerLiter\":10,\"pointsPerLiterP4G\":10},\"DONGLE\":{\"pointsPerLiter\":20,\"pointsPerLiterP4G\":20}}","partnerName":"Adolf Präg GmbH & Co. KG","normalized brand":"ARAL"},{"id":74,"street":"Pulsnitzer Str.","houseNumber":31,"zip":1900,"city":"Großröhrsdorf","lat":51.1513557,"lon":14.0202866,"brand":"ARAL","features":"mtsk'\r\n'fuelBonus'\r\n'fastLane","mtsk-id":"600e29d9-51fc-413e-990e-7fa2583a118a","fuelBonus":"{\"APP_ONLY\":{\"pointsPerLiter\":10,\"pointsPerLiterP4G\":10},\"DONGLE\":{\"pointsPerLiter\":20,\"pointsPerLiterP4G\":20}}","partnerName":"Adolf Präg GmbH & Co. KG","normalized brand":"ARAL"},{"id":75,"street":"Ulmer Str.","houseNumber":13,"zip":89340,"city":"Leipheim","lat":48.4458847,"lon":10.21254,"brand":"ARAL","features":"mtsk'\r\n'fuelBonus'\r\n'fastLane","mtsk-id":"565bb678-387a-4aee-8cee-adf5d9065ff5","fuelBonus":"{\"APP_ONLY\":{\"pointsPerLiter\":10,\"pointsPerLiterP4G\":10},\"DONGLE\":{\"pointsPerLiter\":20,\"pointsPerLiterP4G\":20}}","partnerName":"Adolf Präg GmbH & Co. KG","normalized brand":"PRÄG"},{"id":76,"street":"Oberstdorfer Str.","houseNumber":13,"zip":87435,"city":"Kempten","lat":47.70613,"lon":10.3116608,"brand":"ARAL","features":"mtsk'\r\n'fuelBonus'\r\n'fastLane","mtsk-id":"b2cb8124-b41c-4a39-983a-78c454a62294","fuelBonus":"{\"APP_ONLY\":{\"pointsPerLiter\":10,\"pointsPerLiterP4G\":10},\"DONGLE\":{\"pointsPerLiter\":20,\"pointsPerLiterP4G\":20}}","partnerName":"Adolf Präg GmbH & Co. KG","normalized brand":"PRÄG"},{"id":77,"street":"Friedberger Str.","houseNumber":471,"zip":86161,"city":"Augsburg","lat":48.35563,"lon":10.9190016,"brand":"ARAL","features":"mtsk'\r\n'fuelBonus'\r\n'fastLane","mtsk-id":"303a89df-d225-4624-9bdf-0347fb994535","fuelBonus":"{\"APP_ONLY\":{\"pointsPerLiter\":10,\"pointsPerLiterP4G\":10},\"DONGLE\":{\"pointsPerLiter\":20,\"pointsPerLiterP4G\":20}}","partnerName":"Adolf Präg GmbH & Co. KG","normalized brand":"Aral"},{"id":78,"street":"Günzburger Str.","houseNumber":54,"zip":89264,"city":"Weißenhorn","lat":48.31183,"lon":10.1578522,"brand":"ARAL","features":"fastLane'\r\n'mtsk'\r\n'fuelBonus","mtsk-id":"ee0a625e-b383-4ca0-9168-ce0c1e8333d2","fuelBonus":"{\"APP_ONLY\":{\"pointsPerLiter\":10,\"pointsPerLiterP4G\":10},\"DONGLE\":{\"pointsPerLiter\":20,\"pointsPerLiterP4G\":20}}","partnerName":"Adolf Präg GmbH & Co. KG","normalized brand":"ARAL"},{"id":79,"street":"Heisinger Str.","houseNumber":25,"zip":87463,"city":"Dietmannsried","lat":47.8068428,"lon":10.2962856,"brand":"ARAL","features":"fastLane'\r\n'mtsk'\r\n'fuelBonus","mtsk-id":"b1a4c862-e70a-431f-a168-b523f23f63a1","fuelBonus":"{\"APP_ONLY\":{\"pointsPerLiter\":10,\"pointsPerLiterP4G\":10},\"DONGLE\":{\"pointsPerLiter\":20,\"pointsPerLiterP4G\":20}}","partnerName":"Adolf Präg GmbH & Co. KG","normalized brand":"ARAL"},{"id":80,"street":"Deinbacher Str.","houseNumber":5,"zip":73527,"city":"Schwäbisch Gmünd","lat":48.8164558,"lon":9.778075,"brand":"ARAL","features":"fastLane'\r\n'mtsk'\r\n'fuelBonus","mtsk-id":"62bf8833-ad49-44cd-aaae-64a251641cb0","fuelBonus":"{\"APP_ONLY\":{\"pointsPerLiter\":10,\"pointsPerLiterP4G\":10},\"DONGLE\":{\"pointsPerLiter\":20,\"pointsPerLiterP4G\":20}}","partnerName":"Adolf Präg GmbH & Co. KG","normalized brand":"ARAL"},{"id":81,"street":"Österreicher Str.","houseNumber":64,"zip":1279,"city":"Dresden","lat":51.021,"lon":13.8405008,"brand":"ARAL","features":"mtsk'\r\n'fuelBonus'\r\n'fastLane","mtsk-id":"7fe3c975-298e-4cbd-9903-b9a2f35af8f0","fuelBonus":"{\"APP_ONLY\":{\"pointsPerLiter\":10,\"pointsPerLiterP4G\":10},\"DONGLE\":{\"pointsPerLiter\":20,\"pointsPerLiterP4G\":20}}","partnerName":"Adolf Präg GmbH & Co. KG","normalized brand":"ARAL"},{"id":82,"street":"Seestr.","houseNumber":1,"zip":83471,"city":"Schönau Am Königssee","lat":47.592762,"lon":12.9874411,"brand":"ARAL","features":"mtsk'\r\n'fuelBonus'\r\n'fastLane","mtsk-id":"4dd47f81-651f-46a3-a0a4-4dbd7fd87b41","fuelBonus":"{\"APP_ONLY\":{\"pointsPerLiter\":10,\"pointsPerLiterP4G\":10},\"DONGLE\":{\"pointsPerLiter\":20,\"pointsPerLiterP4G\":20}}","partnerName":"Adolf Präg GmbH & Co. KG","normalized brand":"ARAL"},{"id":83,"street":"Zum Apelstein","houseNumber":1,"zip":4158,"city":"Leipzig / Lindenthal","lat":51.39355,"lon":12.3419638,"brand":"ARAL","features":"mtsk'\r\n'fuelBonus'\r\n'fastLane","mtsk-id":"075b667a-cd7b-4257-b301-b0c39e1e1208","fuelBonus":"{\"APP_ONLY\":{\"pointsPerLiter\":10,\"pointsPerLiterP4G\":10},\"DONGLE\":{\"pointsPerLiter\":20,\"pointsPerLiterP4G\":20}}","partnerName":"Adolf Präg GmbH & Co. KG","normalized brand":"ARAL"},{"id":84,"street":"Leipziger Str.","houseNumber":266,"zip":34260,"city":"Kaufungen","lat":51.28422,"lon":9.602628,"brand":"ARAL","features":"fuelBonus'\r\n'mtsk'\r\n'fastLane","mtsk-id":"c7a7ca44-cea7-4983-a0c2-fd2deb7a88c7","fuelBonus":"{\"APP_ONLY\":{\"pointsPerLiter\":10,\"pointsPerLiterP4G\":10},\"DONGLE\":{\"pointsPerLiter\":20,\"pointsPerLiterP4G\":20}}","partnerName":"Q1 Energie AG","normalized brand":"Aral"},{"id":85,"street":"Fautenbacher Str.","houseNumber":22,"zip":77855,"city":"Achern","lat":48.6285133,"lon":8.063374,"brand":"ARAL","features":"mtsk'\r\n'fuelBonus'\r\n'fastLane","mtsk-id":"242f9d73-0e11-44ba-9d98-8f7a4abf0265","fuelBonus":"{\"APP_ONLY\":{\"pointsPerLiter\":10,\"pointsPerLiterP4G\":10},\"DONGLE\":{\"pointsPerLiter\":20,\"pointsPerLiterP4G\":20}}","partnerName":"Adolf Präg GmbH & Co. KG","normalized brand":"ARAL"},{"id":86,"street":"Portitzer Str.","houseNumber":71,"zip":4425,"city":"Taucha","lat":51.38208,"lon":12.4776115,"brand":"ARAL","features":"fastLane'\r\n'mtsk'\r\n'fuelBonus","mtsk-id":"2f529cc4-4ba1-4044-8128-36fa60faadf8","fuelBonus":"{\"APP_ONLY\":{\"pointsPerLiter\":10,\"pointsPerLiterP4G\":10},\"DONGLE\":{\"pointsPerLiter\":20,\"pointsPerLiterP4G\":20}}","partnerName":"Adolf Präg GmbH & Co. KG","normalized brand":"ARAL"},{"id":87,"street":"Boltensternstr.","houseNumber":350,"zip":50735,"city":"Köln","lat":50.980299,"lon":6.970215,"brand":"ARAL","features":"mtsk'\r\n'fuelBonus'\r\n'fastLane","mtsk-id":"3b9a6cd6-e0f1-441a-868a-3de40b2161c7","fuelBonus":"{\"APP_ONLY\":{\"pointsPerLiter\":10,\"pointsPerLiterP4G\":10},\"DONGLE\":{\"pointsPerLiter\":20,\"pointsPerLiterP4G\":20}}","partnerName":"Wilhelm Kleffmann KG","normalized brand":"Aral"},{"id":88,"street":"Neunkirchener Str.","houseNumber":2,"zip":7952,"city":"Pausa","lat":50.58792,"lon":11.9981852,"brand":"ARAL","features":"mtsk'\r\n'fuelBonus'\r\n'fastLane","mtsk-id":"83203fbe-0421-4f2f-922f-2c0bc958356d","fuelBonus":"{\"APP_ONLY\":{\"pointsPerLiter\":10,\"pointsPerLiterP4G\":10},\"DONGLE\":{\"pointsPerLiter\":20,\"pointsPerLiterP4G\":20}}","partnerName":"Adolf Präg GmbH & Co. KG","normalized brand":"ARAL"},{"id":89,"street":"Gartenallee","houseNumber":2,"zip":4827,"city":"Machern","lat":51.3599,"lon":12.6169758,"brand":"ARAL","features":"mtsk'\r\n'fuelBonus'\r\n'fastLane","mtsk-id":"168c3d3c-ef13-49d8-aadd-ef8668eae29c","fuelBonus":"{\"APP_ONLY\":{\"pointsPerLiter\":10,\"pointsPerLiterP4G\":10},\"DONGLE\":{\"pointsPerLiter\":20,\"pointsPerLiterP4G\":20}}","partnerName":"Adolf Präg GmbH & Co. KG","normalized brand":"ARAL"},{"id":90,"street":"Schneeberger Str.","houseNumber":83,"zip":8112,"city":"Wilkau-Haßlau","lat":50.67328608,"lon":12.52775328,"brand":"ARAL","features":"fastLane'\r\n'mtsk'\r\n'fuelBonus","mtsk-id":"49241ed5-714b-4118-92f1-b447cfd7e001","fuelBonus":"{\"APP_ONLY\":{\"pointsPerLiter\":10,\"pointsPerLiterP4G\":10},\"DONGLE\":{\"pointsPerLiter\":20,\"pointsPerLiterP4G\":20}}","partnerName":"Adolf Präg GmbH & Co. KG","normalized brand":"ARAL"},{"id":91,"street":"Donauwörther Str.","houseNumber":63,"zip":86653,"city":"Monheim","lat":48.8367271,"lon":10.8451948,"brand":"ARAL","features":"mtsk'\r\n'fuelBonus'\r\n'fastLane","mtsk-id":"0ef3e42f-1967-460e-b937-1beb2c8337b0","fuelBonus":"{\"APP_ONLY\":{\"pointsPerLiter\":10,\"pointsPerLiterP4G\":10},\"DONGLE\":{\"pointsPerLiter\":20,\"pointsPerLiterP4G\":20}}","partnerName":"Adolf Präg GmbH & Co. KG","normalized brand":"ARAL"},{"id":92,"street":"Freienhufener Str.","houseNumber":21,"zip":1983,"city":"Großräschen","lat":51.5857735,"lon":14.0026836,"brand":"ARAL","features":"fuelBonus'\r\n'mtsk'\r\n'fastLane","mtsk-id":"919d33d4-6c56-457b-aa72-4752a48730a7","fuelBonus":"{\"APP_ONLY\":{\"pointsPerLiter\":10,\"pointsPerLiterP4G\":10},\"DONGLE\":{\"pointsPerLiter\":20,\"pointsPerLiterP4G\":20}}","partnerName":"Q1 Energie AG","normalized brand":"Aral"},{"id":93,"street":"Ansbacher Str.","houseNumber":35,"zip":91560,"city":"Heilsbronn","lat":49.3340263,"lon":10.7825584,"brand":"ARAL","features":"mtsk'\r\n'fuelBonus'\r\n'fastLane","mtsk-id":"64635fc5-e7cf-4617-ac59-6d7d77a9696c","fuelBonus":"{\"APP_ONLY\":{\"pointsPerLiter\":10,\"pointsPerLiterP4G\":10},\"DONGLE\":{\"pointsPerLiter\":20,\"pointsPerLiterP4G\":20}}","partnerName":"Adolf Präg GmbH & Co. KG","normalized brand":"ARAL"},{"id":94,"street":"Berliner Str.","houseNumber":170,"zip":45144,"city":"Essen","lat":51.4524536,"lon":6.972793,"brand":"ARAL","features":"fuelBonus'\r\n'mtsk'\r\n'fastLane","mtsk-id":"c7ff481f-7cb5-4413-be4b-bcf47fff29b1","fuelBonus":"{\"APP_ONLY\":{\"pointsPerLiter\":10,\"pointsPerLiterP4G\":10},\"DONGLE\":{\"pointsPerLiter\":20,\"pointsPerLiterP4G\":20}}","partnerName":"Q1 Energie AG","normalized brand":"Aral"},{"id":95,"street":"Riedlinger Str.","houseNumber":67,"zip":88422,"city":"Bad Buchau","lat":48.0598946,"lon":9.594575,"brand":"ARAL","features":"mtsk'\r\n'fuelBonus'\r\n'fastLane","mtsk-id":"474e9f37-17d9-4497-bbf2-dabc064cd69e","fuelBonus":"{\"APP_ONLY\":{\"pointsPerLiter\":10,\"pointsPerLiterP4G\":10},\"DONGLE\":{\"pointsPerLiter\":20,\"pointsPerLiterP4G\":20}}","partnerName":"Adolf Präg GmbH & Co. KG","normalized brand":"ARAL"},{"id":96,"street":"Düsseldorfer Str.","houseNumber":491,"zip":51061,"city":"Köln","lat":50.98954,"lon":6.998822,"brand":"ARAL","features":"fuelBonus'\r\n'mtsk'\r\n'fastLane","mtsk-id":"d84be30d-e46e-45ce-b05f-61fe80aa1502","fuelBonus":"{\"APP_ONLY\":{\"pointsPerLiter\":10,\"pointsPerLiterP4G\":10},\"DONGLE\":{\"pointsPerLiter\":20,\"pointsPerLiterP4G\":20}}","partnerName":"Wilhelm Kleffmann KG","normalized brand":"Aral"},{"id":97,"street":"Merscheider Str.","houseNumber":150,"zip":42699,"city":"Solingen","lat":51.165339,"lon":7.025495,"brand":"BFT","features":"mtsk'\r\n'fuelBonus'\r\n'fastLane","mtsk-id":"287f8a6d-e571-4b04-bc7e-e5183c29ae98","fuelBonus":"{\"APP_ONLY\":{\"pointsPerLiter\":10,\"pointsPerLiterP4G\":10},\"DONGLE\":{\"pointsPerLiter\":20,\"pointsPerLiterP4G\":20}}","partnerName":"Wilhelm Kleffmann KG","normalized brand":"bft"},{"id":98,"street":"Züricher Str.","houseNumber":46,"zip":28325,"city":"Bremen","lat":53.0668,"lon":8.94228,"brand":"BFT","features":"fuelBonus'\r\n'mtsk'\r\n'fastLane","mtsk-id":"840713af-85c7-4000-859f-d0a9f55cfd22","fuelBonus":"{\"APP_ONLY\":{\"pointsPerLiter\":10,\"pointsPerLiterP4G\":10},\"DONGLE\":{\"pointsPerLiter\":20,\"pointsPerLiterP4G\":20}}","partnerName":"Q1 Energie AG","normalized brand":"bft"},{"id":99,"street":"Friedrich-Karl-Str.","houseNumber":90,"zip":50735,"city":"Köln","lat":50.974345,"lon":6.958375,"brand":"BFT","features":"mtsk'\r\n'fuelBonus'\r\n'fastLane","mtsk-id":"e64618ea-c2ff-4f35-b8e3-642096606cf4","fuelBonus":"{\"APP_ONLY\":{\"pointsPerLiter\":10,\"pointsPerLiterP4G\":10},\"DONGLE\":{\"pointsPerLiter\":20,\"pointsPerLiterP4G\":20}}","partnerName":"Wilhelm Kleffmann KG","normalized brand":"bft"},{"id":100,"street":"Brunnenstr.","houseNumber":121,"zip":32584,"city":"Löhne","lat":52.1851,"lon":8.69447,"brand":"BFT","features":"fuelBonus'\r\n'mtsk'\r\n'fastLane","mtsk-id":"85e28717-925d-443e-9cb3-4e4b2901ef84","fuelBonus":"{\"APP_ONLY\":{\"pointsPerLiter\":10,\"pointsPerLiterP4G\":10},\"DONGLE\":{\"pointsPerLiter\":20,\"pointsPerLiterP4G\":20}}","partnerName":"Q1 Energie AG","normalized brand":"bft"},{"id":101,"street":"Neue Str.","houseNumber":3,"zip":37643,"city":"Negenborn","lat":51.8848,"lon":9.56591,"brand":"BFT","features":"fuelBonus'\r\n'mtsk'\r\n'fastLane","mtsk-id":"89e300cd-21b1-4d81-82aa-1a3ca44f2d58","fuelBonus":"{\"APP_ONLY\":{\"pointsPerLiter\":10,\"pointsPerLiterP4G\":10},\"DONGLE\":{\"pointsPerLiter\":20,\"pointsPerLiterP4G\":20}}","partnerName":"Q1 Energie AG","normalized brand":"bft"},{"id":102,"street":"Bahnhofstr.","houseNumber":46,"zip":32105,"city":"Bad Salzuflen","lat":52.0813,"lon":8.74293,"brand":"BFT","features":"fuelBonus'\r\n'mtsk'\r\n'fastLane","mtsk-id":"56710788-c131-4952-8d2d-46f3f331d7de","fuelBonus":"{\"APP_ONLY\":{\"pointsPerLiter\":10,\"pointsPerLiterP4G\":10},\"DONGLE\":{\"pointsPerLiter\":20,\"pointsPerLiterP4G\":20}}","partnerName":"Q1 Energie AG","normalized brand":"bft"},{"id":103,"street":"Wilhelmshöhe","houseNumber":3,"zip":56766,"city":"Auderath","lat":50.19128374,"lon":7.017785311,"brand":"BFT","features":"fuelBonus'\r\n'mtsk'\r\n'fastLane","mtsk-id":"e71e1bb6-e7b6-4597-ae83-7e8342579d05","fuelBonus":"{\"APP_ONLY\":{\"pointsPerLiter\":10,\"pointsPerLiterP4G\":10},\"DONGLE\":{\"pointsPerLiter\":20,\"pointsPerLiterP4G\":20}}","partnerName":"Q1 Energie AG","normalized brand":"bft"},{"id":104,"street":"Sebastianstr.","houseNumber":104,"zip":53474,"city":"Bad Neuenahr","lat":50.5455,"lon":7.12072,"brand":"BFT","features":"fuelBonus'\r\n'mtsk'\r\n'fastLane","mtsk-id":"21f995f7-2556-4817-b7b5-744db37ddb69","fuelBonus":"{\"APP_ONLY\":{\"pointsPerLiter\":10,\"pointsPerLiterP4G\":10},\"DONGLE\":{\"pointsPerLiter\":20,\"pointsPerLiterP4G\":20}}","partnerName":"Q1 Energie AG","normalized brand":"bft"},{"id":105,"street":"Gotenstr.","houseNumber":4,"zip":33647,"city":"Bielefeld","lat":51.9894,"lon":8.51,"brand":"BFT","features":"fuelBonus'\r\n'mtsk'\r\n'fastLane","mtsk-id":"d9a6af20-6f47-49fd-91d8-6d862924e46b","fuelBonus":"{\"APP_ONLY\":{\"pointsPerLiter\":10,\"pointsPerLiterP4G\":10},\"DONGLE\":{\"pointsPerLiter\":20,\"pointsPerLiterP4G\":20}}","partnerName":"Q1 Energie AG","normalized brand":"bft"},{"id":106,"street":"Osterholzer Heerstr.","houseNumber":161,"zip":28307,"city":"Bremen","lat":53.0578,"lon":8.9483,"brand":"BFT","features":"fuelBonus'\r\n'mtsk'\r\n'fastLane","mtsk-id":"1a857a75-6fec-4068-aa21-819f291ff7ea","fuelBonus":"{\"APP_ONLY\":{\"pointsPerLiter\":10,\"pointsPerLiterP4G\":10},\"DONGLE\":{\"pointsPerLiter\":20,\"pointsPerLiterP4G\":20}}","partnerName":"Q1 Energie AG","normalized brand":"bft"},{"id":107,"street":"Karlstr.","houseNumber":7,"zip":51379,"city":"Leverkusen","lat":51.062,"lon":7.00481,"brand":"BFT","features":"fuelBonus'\r\n'mtsk'\r\n'fastLane","mtsk-id":"496f883d-6e5c-43ff-ab73-023d3687288a","fuelBonus":"{\"APP_ONLY\":{\"pointsPerLiter\":10,\"pointsPerLiterP4G\":10},\"DONGLE\":{\"pointsPerLiter\":20,\"pointsPerLiterP4G\":20}}","partnerName":"Q1 Energie AG","normalized brand":"bft"},{"id":108,"street":"Hovestr.","houseNumber":40,"zip":48431,"city":"Rheine","lat":52.2729,"lon":7.44058,"brand":"BFT","features":"fuelBonus'\r\n'mtsk'\r\n'fastLane","mtsk-id":"5478e6ee-7a40-4521-b79a-21b1e004b795","fuelBonus":"{\"APP_ONLY\":{\"pointsPerLiter\":10,\"pointsPerLiterP4G\":10},\"DONGLE\":{\"pointsPerLiter\":20,\"pointsPerLiterP4G\":20}}","partnerName":"Q1 Energie AG","normalized brand":"bft"},{"id":109,"street":"Allersheimer Str.","houseNumber":5,"zip":37603,"city":"Holzminden","lat":51.8318,"lon":9.45416,"brand":"BFT","features":"fuelBonus'\r\n'mtsk'\r\n'fastLane","mtsk-id":"458ae860-cc12-4eb6-ab50-2693adde31d4","fuelBonus":"{\"APP_ONLY\":{\"pointsPerLiter\":10,\"pointsPerLiterP4G\":10},\"DONGLE\":{\"pointsPerLiter\":20,\"pointsPerLiterP4G\":20}}","partnerName":"Q1 Energie AG","normalized brand":"bft"},{"id":110,"street":"Heeper Str.","houseNumber":294,"zip":33607,"city":"Bielefeld","lat":52.0282,"lon":8.57581,"brand":"BFT","features":"fuelBonus'\r\n'mtsk'\r\n'fastLane","mtsk-id":"cb872a7e-ebc8-4ec9-b8b2-75cac28220d3","fuelBonus":"{\"APP_ONLY\":{\"pointsPerLiter\":10,\"pointsPerLiterP4G\":10},\"DONGLE\":{\"pointsPerLiter\":20,\"pointsPerLiterP4G\":20}}","partnerName":"Q1 Energie AG","normalized brand":"bft"},{"id":111,"street":"Südenmauer","houseNumber":2,"zip":59227,"city":"Ahlen","lat":51.7613,"lon":7.88988,"brand":"BFT","features":"fuelBonus'\r\n'mtsk'\r\n'fastLane","mtsk-id":"4793ffaf-02b7-4d6f-9fb7-a3f504115823","fuelBonus":"{\"APP_ONLY\":{\"pointsPerLiter\":10,\"pointsPerLiterP4G\":10},\"DONGLE\":{\"pointsPerLiter\":20,\"pointsPerLiterP4G\":20}}","partnerName":"Q1 Energie AG","normalized brand":"bft"},{"id":112,"street":"Wernesgrüner Str.","houseNumber":39,"zip":8228,"city":"Rodewisch","lat":50.5323,"lon":12.4315,"brand":"BFT","features":"fuelBonus'\r\n'mtsk'\r\n'fastLane","mtsk-id":"5d0f2c5a-b3f1-45a9-835b-22de1a0b8ba7","fuelBonus":"{\"APP_ONLY\":{\"pointsPerLiter\":10,\"pointsPerLiterP4G\":10},\"DONGLE\":{\"pointsPerLiter\":20,\"pointsPerLiterP4G\":20}}","partnerName":"Q1 Energie AG","normalized brand":"Q1"},{"id":113,"street":"Blankenburger Str.","houseNumber":36,"zip":13156,"city":"Berlin","lat":52.582,"lon":13.4096,"brand":"BFT","features":"fuelBonus'\r\n'mtsk'\r\n'fastLane","mtsk-id":"c7565063-01dd-4181-82a9-a9012f2380ae","fuelBonus":"{\"APP_ONLY\":{\"pointsPerLiter\":10,\"pointsPerLiterP4G\":10},\"DONGLE\":{\"pointsPerLiter\":20,\"pointsPerLiterP4G\":20}}","partnerName":"Q1 Energie AG","normalized brand":"Q1"},{"id":114,"street":"Hauptstr.","houseNumber":43,"zip":33758,"city":"Schloß Holte-Stukenbrock","lat":51.90887702,"lon":8.663936377,"brand":"BFT","features":"fuelBonus'\r\n'mtsk'\r\n'fastLane","mtsk-id":"e32fc0a9-306d-4b0c-bd43-9dfa54573363","fuelBonus":"{\"APP_ONLY\":{\"pointsPerLiter\":10,\"pointsPerLiterP4G\":10},\"DONGLE\":{\"pointsPerLiter\":20,\"pointsPerLiterP4G\":20}}","partnerName":"Q1 Energie AG","normalized brand":"bft"},{"id":115,"street":"Gildehauser Str.","houseNumber":101,"zip":48599,"city":"Gronau","lat":52.2177,"lon":7.03501,"brand":"BFT","features":"fuelBonus'\r\n'mtsk'\r\n'fastLane","mtsk-id":"a6b4cb29-3ca4-4900-8c37-85b61cb80eb7","fuelBonus":"{\"APP_ONLY\":{\"pointsPerLiter\":10,\"pointsPerLiterP4G\":10},\"DONGLE\":{\"pointsPerLiter\":20,\"pointsPerLiterP4G\":20}}","partnerName":"Q1 Energie AG","normalized brand":"bft"},{"id":116,"street":"Mühlenstr.","houseNumber":96,"zip":25421,"city":"Pinneberg","lat":53.6577,"lon":9.7768,"brand":"BFT","features":"fuelBonus'\r\n'mtsk'\r\n'fastLane","mtsk-id":"8402f709-5242-4c48-9f68-226872bfc31f","fuelBonus":"{\"APP_ONLY\":{\"pointsPerLiter\":10,\"pointsPerLiterP4G\":10},\"DONGLE\":{\"pointsPerLiter\":20,\"pointsPerLiterP4G\":20}}","partnerName":"Q1 Energie AG","normalized brand":"bft"},{"id":117,"street":"Dessauer Chaussee","houseNumber":11,"zip":6385,"city":"Aken","lat":51.8537,"lon":12.0554,"brand":"BFT","features":"fuelBonus'\r\n'mtsk'\r\n'fastLane","mtsk-id":"175498b0-0b94-43cb-9132-7fd1c1168e07","fuelBonus":"{\"APP_ONLY\":{\"pointsPerLiter\":10,\"pointsPerLiterP4G\":10},\"DONGLE\":{\"pointsPerLiter\":20,\"pointsPerLiterP4G\":20}}","partnerName":"Q1 Energie AG","normalized brand":"bft"},{"id":118,"street":"Arnold-Overbeck-Str.","houseNumber":67,"zip":47139,"city":"Duisburg","lat":51.4835,"lon":6.734,"brand":"BFT","features":"fuelBonus'\r\n'mtsk'\r\n'fastLane","mtsk-id":"1180607e-b498-454f-8f06-602829b81ffb","fuelBonus":"{\"APP_ONLY\":{\"pointsPerLiter\":10,\"pointsPerLiterP4G\":10},\"DONGLE\":{\"pointsPerLiter\":20,\"pointsPerLiterP4G\":20}}","partnerName":"Q1 Energie AG","normalized brand":"bft"},{"id":119,"street":"Wiedenbrücker Str.","houseNumber":12,"zip":33332,"city":"Gütersloh","lat":51.895,"lon":8.36781,"brand":"BFT","features":"fuelBonus'\r\n'mtsk'\r\n'fastLane","mtsk-id":"b7a8ef15-eeef-451b-a281-72d374e066cf","fuelBonus":"{\"APP_ONLY\":{\"pointsPerLiter\":10,\"pointsPerLiterP4G\":10},\"DONGLE\":{\"pointsPerLiter\":20,\"pointsPerLiterP4G\":20}}","partnerName":"Q1 Energie AG","normalized brand":"bft"},{"id":120,"street":"Torgauer Str.","houseNumber":118,"zip":4347,"city":"Leipzig","lat":51.3568,"lon":12.4376,"brand":"BFT","features":"fuelBonus'\r\n'mtsk'\r\n'fastLane","mtsk-id":"25bbcf0b-95e5-4ccf-8f9c-6621673abe99","fuelBonus":"{\"APP_ONLY\":{\"pointsPerLiter\":10,\"pointsPerLiterP4G\":10},\"DONGLE\":{\"pointsPerLiter\":20,\"pointsPerLiterP4G\":20}}","partnerName":"Q1 Energie AG","normalized brand":"bft"},{"id":121,"street":"Hasporter Damm","houseNumber":159,"zip":27755,"city":"Delmenhorst","lat":53.0341,"lon":8.65099,"brand":"BFT","features":"fuelBonus'\r\n'mtsk'\r\n'fastLane","mtsk-id":"30f9d3d3-a41b-463e-99f8-c077f4828df0","fuelBonus":"{\"APP_ONLY\":{\"pointsPerLiter\":10,\"pointsPerLiterP4G\":10},\"DONGLE\":{\"pointsPerLiter\":20,\"pointsPerLiterP4G\":20}}","partnerName":"Q1 Energie AG","normalized brand":"bft"},{"id":122,"street":"Pampower Str.","houseNumber":5,"zip":19061,"city":"Schwerin","lat":53.5892,"lon":11.4028,"brand":"BFT","features":"fuelBonus'\r\n'mtsk'\r\n'fastLane","mtsk-id":"19ce5dce-9afd-4dab-bb17-1faefdd60904","fuelBonus":"{\"APP_ONLY\":{\"pointsPerLiter\":10,\"pointsPerLiterP4G\":10},\"DONGLE\":{\"pointsPerLiter\":20,\"pointsPerLiterP4G\":20}}","partnerName":"Q1 Energie AG","normalized brand":"bft"},{"id":123,"street":"Riesaer Str.","houseNumber":56,"zip":4328,"city":"Leipzig","lat":51.3454,"lon":12.4493,"brand":"BFT","features":"fuelBonus'\r\n'mtsk'\r\n'fastLane","mtsk-id":"0bb16757-fa71-4c60-baad-002055e7ecb2","fuelBonus":"{\"APP_ONLY\":{\"pointsPerLiter\":10,\"pointsPerLiterP4G\":10},\"DONGLE\":{\"pointsPerLiter\":20,\"pointsPerLiterP4G\":20}}","partnerName":"Q1 Energie AG","normalized brand":"bft"},{"id":124,"street":"Briesker Str.","houseNumber":85,"zip":1968,"city":"Senftenberg","lat":51.50958716,"lon":13.97934079,"brand":"BFT","features":"fuelBonus'\r\n'mtsk'\r\n'fastLane","mtsk-id":"6bdb7c28-eb82-4ddb-8e4f-7670896e6294","fuelBonus":"{\"APP_ONLY\":{\"pointsPerLiter\":10,\"pointsPerLiterP4G\":10},\"DONGLE\":{\"pointsPerLiter\":20,\"pointsPerLiterP4G\":20}}","partnerName":"Q1 Energie AG","normalized brand":"Q1"},{"id":125,"street":"Heikendorfer Weg","houseNumber":79,"zip":24248,"city":"Mönkeberg","lat":54.3489,"lon":10.1879,"brand":"BFT","features":"fuelBonus'\r\n'mtsk'\r\n'fastLane","mtsk-id":"28131a8e-7a0d-494b-aa2d-814862fcd3ec","fuelBonus":"{\"APP_ONLY\":{\"pointsPerLiter\":10,\"pointsPerLiterP4G\":10},\"DONGLE\":{\"pointsPerLiter\":20,\"pointsPerLiterP4G\":20}}","partnerName":"Q1 Energie AG","normalized brand":"bft"},{"id":126,"street":"Hans-Böckler-Str.","houseNumber":66,"zip":40764,"city":"Langenfeld","lat":51.12203916,"lon":6.924845549,"brand":"BFT","features":"mtsk'\r\n'fuelBonus'\r\n'fastLane","mtsk-id":"008baabd-1a5d-4b88-a10e-6b4515dc0331","fuelBonus":"{\"APP_ONLY\":{\"pointsPerLiter\":10,\"pointsPerLiterP4G\":10},\"DONGLE\":{\"pointsPerLiter\":20,\"pointsPerLiterP4G\":20}}","partnerName":"Wilhelm Kleffmann KG","normalized brand":"bft"},{"id":127,"street":"Hauptstr.","houseNumber":150,"zip":56170,"city":"Bendorf","lat":50.4263,"lon":7.57205,"brand":"BFT","features":"fuelBonus'\r\n'mtsk'\r\n'fastLane","mtsk-id":"0a332404-e6f0-400b-8691-7dcb5ac32b91","fuelBonus":"{\"APP_ONLY\":{\"pointsPerLiter\":10,\"pointsPerLiterP4G\":10},\"DONGLE\":{\"pointsPerLiter\":20,\"pointsPerLiterP4G\":20}}","partnerName":"Q1 Energie AG","normalized brand":"bft"},{"id":128,"street":"Osnabrücker Str.","houseNumber":158,"zip":49479,"city":"Ibbenbüren","lat":52.2849,"lon":7.74609,"brand":"BFT","features":"fuelBonus'\r\n'mtsk'\r\n'fastLane","mtsk-id":"b797220e-8434-4a25-8a53-42761e89ffb3","fuelBonus":"{\"APP_ONLY\":{\"pointsPerLiter\":10,\"pointsPerLiterP4G\":10},\"DONGLE\":{\"pointsPerLiter\":20,\"pointsPerLiterP4G\":20}}","partnerName":"Q1 Energie AG","normalized brand":"bft"},{"id":129,"street":"Heidestr.","houseNumber":95,"zip":42549,"city":"Velbert","lat":51.3313,"lon":7.04033,"brand":"BFT","features":"fuelBonus'\r\n'mtsk'\r\n'fastLane","mtsk-id":"3fa47a9b-b010-4f6c-b62f-eb383b21ebba","fuelBonus":"{\"APP_ONLY\":{\"pointsPerLiter\":10,\"pointsPerLiterP4G\":10},\"DONGLE\":{\"pointsPerLiter\":20,\"pointsPerLiterP4G\":20}}","partnerName":"Q1 Energie AG","normalized brand":"bft"},{"id":130,"street":"Heidbunge","houseNumber":3,"zip":24848,"city":"Kropp","lat":54.3756,"lon":9.54714,"brand":"BFT","features":"fuelBonus'\r\n'mtsk'\r\n'fastLane","mtsk-id":"c5d9bcf7-b264-4cb9-ad21-5d2d9e18995c","fuelBonus":"{\"APP_ONLY\":{\"pointsPerLiter\":10,\"pointsPerLiterP4G\":10},\"DONGLE\":{\"pointsPerLiter\":20,\"pointsPerLiterP4G\":20}}","partnerName":"Q1 Energie AG","normalized brand":"bft"},{"id":131,"street":"An Der B 92","houseNumber":1,"zip":7957,"city":"Langenwetzendorf","lat":50.717236,"lon":12.112013,"brand":"BFT","features":"fuelBonus'\r\n'mtsk'\r\n'fastLane","mtsk-id":"577b85e6-87ec-439e-bfb4-06af5635c980","fuelBonus":"{\"APP_ONLY\":{\"pointsPerLiter\":10,\"pointsPerLiterP4G\":10},\"DONGLE\":{\"pointsPerLiter\":20,\"pointsPerLiterP4G\":20}}","partnerName":"Tankstelle Wildetaube","normalized brand":"bft"},{"id":132,"street":"Baeyerstr.","houseNumber":1,"zip":24536,"city":"Neumünster","lat":54.10063957,"lon":9.977758527,"brand":"EDEKA","features":"mtsk'\r\n'fastLane","mtsk-id":"910937c1-d409-404c-93e1-af6264da493e","fuelBonus":"","partnerName":"Hermann Lother + Co. Mineralölhandelsgesellschaft mbH","normalized brand":"EDEKA Tankstelle"},{"id":133,"street":"Münsterstr.","houseNumber":45,"zip":49186,"city":"Bad Iburg","lat":52.1518,"lon":8.038,"brand":"FELTA","features":"fuelBonus'\r\n'mtsk'\r\n'fastLane","mtsk-id":"c4b50bb5-ecbc-4df8-9c78-3590f775dc7d","fuelBonus":"{\"APP_ONLY\":{\"pointsPerLiter\":10,\"pointsPerLiterP4G\":10},\"DONGLE\":{\"pointsPerLiter\":20,\"pointsPerLiterP4G\":20}}","partnerName":"Feldhaus Energie GMBH & Co. KG","normalized brand":"Felta"},{"id":134,"street":"Mühlenstr.","houseNumber":30,"zip":49401,"city":"Damme","lat":52.5231,"lon":8.19315,"brand":"FELTA","features":"fuelBonus'\r\n'mtsk'\r\n'fastLane","mtsk-id":"56d93b2e-640d-4dc9-a69e-580338c33727","fuelBonus":"{\"APP_ONLY\":{\"pointsPerLiter\":10,\"pointsPerLiterP4G\":10},\"DONGLE\":{\"pointsPerLiter\":20,\"pointsPerLiterP4G\":20}}","partnerName":"Feldhaus Energie GMBH & Co. KG","normalized brand":"Felta"},{"id":135,"street":"Bergweg","houseNumber":41,"zip":49393,"city":"Lohne","lat":52.6643,"lon":8.25677,"brand":"FELTA","features":"fuelBonus'\r\n'mtsk'\r\n'fastLane","mtsk-id":"cf9a3531-6a16-4c03-a7b9-2940a25cc0de","fuelBonus":"{\"APP_ONLY\":{\"pointsPerLiter\":10,\"pointsPerLiterP4G\":10},\"DONGLE\":{\"pointsPerLiter\":20,\"pointsPerLiterP4G\":20}}","partnerName":"Feldhaus Energie GMBH & Co. KG","normalized brand":"Felta"},{"id":136,"street":"Glandorfer Str.","houseNumber":20,"zip":48336,"city":"Sassenberg","lat":52.0501,"lon":8.03411,"brand":"FELTA","features":"fuelBonus'\r\n'mtsk'\r\n'fastLane","mtsk-id":"ab8cc1de-63f4-46bf-b795-b188d8326520","fuelBonus":"{\"APP_ONLY\":{\"pointsPerLiter\":10,\"pointsPerLiterP4G\":10},\"DONGLE\":{\"pointsPerLiter\":20,\"pointsPerLiterP4G\":20}}","partnerName":"Feldhaus Energie GMBH & Co. KG","normalized brand":"Felta"},{"id":137,"street":"Steinhauser Str.","houseNumber":14,"zip":26345,"city":"Bockhorn","lat":53.3955,"lon":8.01392,"brand":"FELTA","features":"fuelBonus'\r\n'mtsk'\r\n'fastLane","mtsk-id":"00299b2b-4fcf-454a-9dfd-871a57bfe4ff","fuelBonus":"{\"APP_ONLY\":{\"pointsPerLiter\":10,\"pointsPerLiterP4G\":10},\"DONGLE\":{\"pointsPerLiter\":20,\"pointsPerLiterP4G\":20}}","partnerName":"Feldhaus Energie GMBH & Co. KG","normalized brand":"Felta"},{"id":138,"street":"Hauptstr.","houseNumber":247,"zip":28816,"city":"Fahrenhorst","lat":52.9462,"lon":8.711,"brand":"FELTA","features":"fuelBonus'\r\n'mtsk'\r\n'fastLane","mtsk-id":"36530021-6388-4a45-a2a8-ec0835ac89f6","fuelBonus":"{\"APP_ONLY\":{\"pointsPerLiter\":10,\"pointsPerLiterP4G\":10},\"DONGLE\":{\"pointsPerLiter\":20,\"pointsPerLiterP4G\":20}}","partnerName":"Feldhaus Energie GMBH & Co. KG","normalized brand":"Felta"},{"id":139,"street":"Celler Str.","houseNumber":25,"zip":29525,"city":"Uelzen","lat":52.9527,"lon":10.5482,"brand":"FELTA","features":"fuelBonus'\r\n'mtsk'\r\n'fastLane","mtsk-id":"dd81a66a-9dec-4673-910a-86d5f49b7c62","fuelBonus":"{\"APP_ONLY\":{\"pointsPerLiter\":10,\"pointsPerLiterP4G\":10},\"DONGLE\":{\"pointsPerLiter\":20,\"pointsPerLiterP4G\":20}}","partnerName":"Feldhaus Energie GMBH & Co. KG","normalized brand":"Felta"},{"id":140,"street":"Hohes Ufer","houseNumber":2,"zip":49624,"city":"Löningen","lat":52.73138224,"lon":7.771730661,"brand":"FELTA","features":"mtsk'\r\n'fuelBonus'\r\n'fastLane","mtsk-id":"776e1f8c-6f81-40f1-998d-f2709b76d597","fuelBonus":"{\"APP_ONLY\":{\"pointsPerLiter\":10,\"pointsPerLiterP4G\":10},\"DONGLE\":{\"pointsPerLiter\":20,\"pointsPerLiterP4G\":20}}","partnerName":"Feldhaus Energie GMBH & Co. KG","normalized brand":"Felta"},{"id":141,"street":"Falkenrotter Str.","houseNumber":163,"zip":49377,"city":"Vechta","lat":52.73181818,"lon":8.264194966,"brand":"FELTA","features":"fuelBonus'\r\n'mtsk'\r\n'fastLane","mtsk-id":"366e7c35-df20-4c7e-9d98-21ceb3c5885e","fuelBonus":"{\"APP_ONLY\":{\"pointsPerLiter\":10,\"pointsPerLiterP4G\":10},\"DONGLE\":{\"pointsPerLiter\":20,\"pointsPerLiterP4G\":20}}","partnerName":"Feldhaus Energie GMBH & Co. KG","normalized brand":"Felta"},{"id":142,"street":"Visbeker Damm","houseNumber":1,"zip":49429,"city":"Visbek","lat":52.82668255,"lon":8.304237127,"brand":"FELTA","features":"fuelBonus'\r\n'mtsk'\r\n'fastLane","mtsk-id":"72e2dea2-0198-406d-a9e2-0f20a96befe1","fuelBonus":"{\"APP_ONLY\":{\"pointsPerLiter\":10,\"pointsPerLiterP4G\":10},\"DONGLE\":{\"pointsPerLiter\":20,\"pointsPerLiterP4G\":20}}","partnerName":"Feldhaus Energie GMBH & Co. KG","normalized brand":"Felta"},{"id":143,"street":"Schapers Kamp","houseNumber":1,"zip":31311,"city":"Uetze","lat":52.46504375,"lon":10.19028068,"brand":"Famila Tank","features":"fuelBonus'\r\n'mtsk'\r\n'fastLane","mtsk-id":"2a8ccfe6-cbd9-4f54-9628-25283628584c","fuelBonus":"{\"APP_ONLY\":{\"pointsPerLiter\":10,\"pointsPerLiterP4G\":10},\"DONGLE\":{\"pointsPerLiter\":20,\"pointsPerLiterP4G\":20}}","partnerName":"MHB Mineralölhandel GmbH","normalized brand":"Famila Tank"},{"id":144,"street":"Hauptstr.","houseNumber":38,"zip":49152,"city":"Bad Essen-Rabber","lat":52.316688,"lon":8.408558965,"brand":"Freie Tankstelle","features":"fuelBonus'\r\n'mtsk'\r\n'fastLane","mtsk-id":"f84b8eb8-39b3-4f08-9005-cdeea663c619","fuelBonus":"{\"APP_ONLY\":{\"pointsPerLiter\":10,\"pointsPerLiterP4G\":10},\"DONGLE\":{\"pointsPerLiter\":20,\"pointsPerLiterP4G\":20}}","partnerName":"Q1 Energie AG","normalized brand":"Freie Tankstelle"},{"id":145,"street":"Bielefelder Str.","houseNumber":31,"zip":49176,"city":"Hilter","lat":52.1351,"lon":8.1494,"brand":"Freie Tankstelle","features":"fuelBonus'\r\n'mtsk'\r\n'fastLane","mtsk-id":"2c997412-1996-44e7-b43b-d5a365dc7185","fuelBonus":"{\"APP_ONLY\":{\"pointsPerLiter\":10,\"pointsPerLiterP4G\":10},\"DONGLE\":{\"pointsPerLiter\":20,\"pointsPerLiterP4G\":20}}","partnerName":"Q1 Energie AG","normalized brand":"Freie Tankstelle"},{"id":146,"street":"Bahnhofstr.","houseNumber":16,"zip":56414,"city":"Wallmerod","lat":50.48633709,"lon":7.949982762,"brand":"Freie Tankstelle","features":"mtsk'\r\n'fuelBonus'\r\n'fastLane","mtsk-id":"3d736686-4fdc-401f-a233-9ce34f03c4fd","fuelBonus":"{\"APP_ONLY\":{\"pointsPerLiter\":10,\"pointsPerLiterP4G\":10},\"DONGLE\":{\"pointsPerLiter\":20,\"pointsPerLiterP4G\":20}}","partnerName":"Q1 Energie AG","normalized brand":"Freie Tankstelle"},{"id":147,"street":"Hausener Str.","houseNumber":51,"zip":56736,"city":"Kottenheim","lat":50.34359807,"lon":7.26224184,"brand":"Freie Tankstelle","features":"fuelBonus'\r\n'mtsk'\r\n'fastLane","mtsk-id":"ba4a8a85-0f75-49d0-8b96-c0350a8a1405","fuelBonus":"{\"APP_ONLY\":{\"pointsPerLiter\":10,\"pointsPerLiterP4G\":10},\"DONGLE\":{\"pointsPerLiter\":20,\"pointsPerLiterP4G\":20}}","partnerName":"Q1 Energie AG","normalized brand":"Freie Tankstelle"},{"id":148,"street":"Koblenzer Str.","houseNumber":168,"zip":56727,"city":"Mayen","lat":50.32699474,"lon":7.247527242,"brand":"Freie Tankstelle","features":"fuelBonus'\r\n'mtsk'\r\n'fastLane","mtsk-id":"36bd05a0-da95-42ec-afd4-0e3bf7165682","fuelBonus":"{\"APP_ONLY\":{\"pointsPerLiter\":10,\"pointsPerLiterP4G\":10},\"DONGLE\":{\"pointsPerLiter\":20,\"pointsPerLiterP4G\":20}}","partnerName":"Q1 Energie AG","normalized brand":"Freie Tankstelle"},{"id":149,"street":"Münsterau","houseNumber":215,"zip":52224,"city":"Stolberg","lat":50.73638588,"lon":6.267077923,"brand":"Freie Tankstelle","features":"mtsk'\r\n'fuelBonus'\r\n'fastLane","mtsk-id":"2341afc1-3e0b-4a64-b34e-d50b6922222e","fuelBonus":"{\"APP_ONLY\":{\"pointsPerLiter\":10,\"pointsPerLiterP4G\":10},\"DONGLE\":{\"pointsPerLiter\":20,\"pointsPerLiterP4G\":20}}","partnerName":"Q1 Energie AG","normalized brand":"Freie Tankstelle"},{"id":150,"street":"Aalener Str.","houseNumber":36,"zip":73441,"city":"Bopfingen","lat":48.86200095,"lon":10.34641743,"brand":"Freie Tankstelle","features":"fuelBonus'\r\n'mtsk'\r\n'fastLane","mtsk-id":"b74e6652-559d-4bf8-8bad-f1f825d86629","fuelBonus":"{\"APP_ONLY\":{\"pointsPerLiter\":10,\"pointsPerLiterP4G\":10},\"DONGLE\":{\"pointsPerLiter\":20,\"pointsPerLiterP4G\":20}}","partnerName":"Q1 Energie AG","normalized brand":"Freie Tankstelle"},{"id":151,"street":"Castroper Str.","houseNumber":174,"zip":44791,"city":"Bochum","lat":51.489594,"lon":7.238667,"brand":"GO","features":"fuelBonus'\r\n'mtsk'\r\n'fastLane","mtsk-id":"e1a15081-2606-9107-e040-0b0a3dfe563c","fuelBonus":"{\"APP_ONLY\":{\"pointsPerLiter\":10,\"pointsPerLiterP4G\":10},\"DONGLE\":{\"pointsPerLiter\":20,\"pointsPerLiterP4G\":20}}","partnerName":"Deutsche Tamoil GmbH","normalized brand":"GO Tankstelle"},{"id":152,"street":"Chausseestr.","houseNumber":32,"zip":15345,"city":"Lichtenow","lat":52.4805,"lon":13.9109,"brand":"GO","features":"fastLane'\r\n'mtsk'\r\n'fuelBonus","mtsk-id":"cf8a68d5-4670-4f7b-8d2b-6f3547bef539","fuelBonus":"{\"APP_ONLY\":{\"pointsPerLiter\":10,\"pointsPerLiterP4G\":10},\"DONGLE\":{\"pointsPerLiter\":20,\"pointsPerLiterP4G\":20}}","partnerName":"Sprint Tank GmbH","normalized brand":"GO"},{"id":153,"street":"Dresdner Str.","houseNumber":46,"zip":1796,"city":"Pirna","lat":50.9575,"lon":13.9165,"brand":"GO","features":"mtsk'\r\n'fuelBonus'\r\n'fastLane","mtsk-id":"90363aa5-3d97-4d23-8345-c479f08f95e8","fuelBonus":"{\"APP_ONLY\":{\"pointsPerLiter\":10,\"pointsPerLiterP4G\":10},\"DONGLE\":{\"pointsPerLiter\":20,\"pointsPerLiterP4G\":20}}","partnerName":"Sprint Tank GmbH","normalized brand":"SPRINT"},{"id":154,"street":"Müggelpark","houseNumber":35,"zip":15537,"city":"Gosen","lat":52.39646508,"lon":13.72020185,"brand":"GO","features":"mtsk'\r\n'fuelBonus'\r\n'fastLane","mtsk-id":"01de617a-fdf6-47a3-a693-626cfeebe182","fuelBonus":"{\"APP_ONLY\":{\"pointsPerLiter\":10,\"pointsPerLiterP4G\":10},\"DONGLE\":{\"pointsPerLiter\":20,\"pointsPerLiterP4G\":20}}","partnerName":"Sprint Tank GmbH","normalized brand":"SPRINT"},{"id":155,"street":"Jesteburger Chaussee","houseNumber":19,"zip":21227,"city":"Bendestorf","lat":53.335552,"lon":9.984544,"brand":"GO","features":"fuelBonus'\r\n'mtsk'\r\n'fastLane","mtsk-id":"e1a15081-2602-9107-e040-0b0a3dfe563c","fuelBonus":"{\"APP_ONLY\":{\"pointsPerLiter\":10,\"pointsPerLiterP4G\":10},\"DONGLE\":{\"pointsPerLiter\":20,\"pointsPerLiterP4G\":20}}","partnerName":"Deutsche Tamoil GmbH","normalized brand":"GO Tankstelle"},{"id":156,"street":"Perleberger Str.","houseNumber":90,"zip":19322,"city":"Wittenberge","lat":53.01,"lon":11.7595,"brand":"GO","features":"fastLane'\r\n'mtsk'\r\n'fuelBonus","mtsk-id":"e2e1abec-0bbb-4611-acc6-311d07e13f7c","fuelBonus":"{\"APP_ONLY\":{\"pointsPerLiter\":10,\"pointsPerLiterP4G\":10},\"DONGLE\":{\"pointsPerLiter\":20,\"pointsPerLiterP4G\":20}}","partnerName":"Sprint Tank GmbH","normalized brand":"GO"},{"id":157,"street":"Rumburger Str.","houseNumber":3,"zip":2708,"city":"Löbau","lat":51.0841,"lon":14.6608,"brand":"GO","features":"fastLane'\r\n'mtsk'\r\n'fuelBonus","mtsk-id":"a98a0081-1b9f-40d9-8730-977a3681e64c","fuelBonus":"{\"APP_ONLY\":{\"pointsPerLiter\":10,\"pointsPerLiterP4G\":10},\"DONGLE\":{\"pointsPerLiter\":20,\"pointsPerLiterP4G\":20}}","partnerName":"Sprint Tank GmbH","normalized brand":"GO"},{"id":158,"street":"Jahnstr.","houseNumber":23,"zip":6766,"city":"Wolfen","lat":51.6519,"lon":12.2639,"brand":"GO","features":"fastLane'\r\n'mtsk'\r\n'fuelBonus","mtsk-id":"37882506-0c06-4eea-bddb-a06c7126a0af","fuelBonus":"{\"APP_ONLY\":{\"pointsPerLiter\":10,\"pointsPerLiterP4G\":10},\"DONGLE\":{\"pointsPerLiter\":20,\"pointsPerLiterP4G\":20}}","partnerName":"Sprint Tank GmbH","normalized brand":"GO"},{"id":159,"street":"Woltersdorfer Str.","houseNumber":1,"zip":15562,"city":"Rüdersdorf","lat":52.4655,"lon":13.8057,"brand":"GO","features":"mtsk'\r\n'fuelBonus'\r\n'fastLane","mtsk-id":"8c2b3b83-7dd8-479d-b3e5-372d69086116","fuelBonus":"{\"APP_ONLY\":{\"pointsPerLiter\":10,\"pointsPerLiterP4G\":10},\"DONGLE\":{\"pointsPerLiter\":20,\"pointsPerLiterP4G\":20}}","partnerName":"Sprint Tank GmbH","normalized brand":"SPRINT"},{"id":160,"street":"Dresdner Str.","houseNumber":17,"zip":1936,"city":"Schwepnitz","lat":51.3282,"lon":13.9552,"brand":"GO","features":"fastLane'\r\n'mtsk'\r\n'fuelBonus","mtsk-id":"8e480cfa-81ec-4ec1-a861-2eb81d6ea26e","fuelBonus":"{\"APP_ONLY\":{\"pointsPerLiter\":10,\"pointsPerLiterP4G\":10},\"DONGLE\":{\"pointsPerLiter\":20,\"pointsPerLiterP4G\":20}}","partnerName":"Sprint Tank GmbH","normalized brand":"GO"},{"id":161,"street":"Zwickauer Str.","houseNumber":184,"zip":9116,"city":"Chemnitz","lat":50.8217,"lon":12.8853,"brand":"GO","features":"fastLane'\r\n'mtsk'\r\n'fuelBonus","mtsk-id":"2cd2ad1a-1d54-463e-bdb2-00f49d3f6844","fuelBonus":"{\"APP_ONLY\":{\"pointsPerLiter\":10,\"pointsPerLiterP4G\":10},\"DONGLE\":{\"pointsPerLiter\":20,\"pointsPerLiterP4G\":20}}","partnerName":"Sprint Tank GmbH","normalized brand":"GO"},{"id":162,"street":"Bautzner Str.","houseNumber":9,"zip":2763,"city":"Oppach","lat":51.0612,"lon":14.4993,"brand":"GO","features":"fastLane'\r\n'mtsk'\r\n'fuelBonus","mtsk-id":"52d87455-b7d6-46e7-bbc8-5b35bfdf6584","fuelBonus":"{\"APP_ONLY\":{\"pointsPerLiter\":10,\"pointsPerLiterP4G\":10},\"DONGLE\":{\"pointsPerLiter\":20,\"pointsPerLiterP4G\":20}}","partnerName":"Sprint Tank GmbH","normalized brand":"GO"},{"id":163,"street":"Gewerbegebiet Nord","houseNumber":1,"zip":9456,"city":"Mildenau","lat":50.6003,"lon":13.0626,"brand":"GO","features":"fastLane'\r\n'mtsk'\r\n'fuelBonus","mtsk-id":"dab92e4c-b156-4075-a5da-201bd98efcb6","fuelBonus":"{\"APP_ONLY\":{\"pointsPerLiter\":10,\"pointsPerLiterP4G\":10},\"DONGLE\":{\"pointsPerLiter\":20,\"pointsPerLiterP4G\":20}}","partnerName":"Sprint Tank GmbH","normalized brand":"GO"},{"id":164,"street":"Forderstedter Str.","houseNumber":7,"zip":39418,"city":"Stassfurt","lat":51.8642,"lon":11.5967,"brand":"GO","features":"fastLane'\r\n'mtsk'\r\n'fuelBonus","mtsk-id":"db12e50b-7879-40fa-bbac-c5364c9eeca4","fuelBonus":"{\"APP_ONLY\":{\"pointsPerLiter\":10,\"pointsPerLiterP4G\":10},\"DONGLE\":{\"pointsPerLiter\":20,\"pointsPerLiterP4G\":20}}","partnerName":"Sprint Tank GmbH","normalized brand":"GO"},{"id":165,"street":"Charlottenburger Str.","houseNumber":61,"zip":22045,"city":"Hamburg","lat":53.581608,"lon":10.138535,"brand":"GO","features":"fuelBonus'\r\n'mtsk'\r\n'fastLane","mtsk-id":"e1a15081-2616-9107-e040-0b0a3dfe563c","fuelBonus":"{\"APP_ONLY\":{\"pointsPerLiter\":10,\"pointsPerLiterP4G\":10},\"DONGLE\":{\"pointsPerLiter\":20,\"pointsPerLiterP4G\":20}}","partnerName":"Deutsche Tamoil GmbH","normalized brand":"GO Tankstelle"},{"id":166,"street":"Wasserburger Landstr.","houseNumber":285,"zip":81827,"city":"München","lat":48.11121,"lon":11.71303,"brand":"HEM","features":"mtsk'\r\n'fastLane'\r\n'fuelBonus","mtsk-id":"2a6ec536-a1e2-44cd-aaa6-2abc46b36866","fuelBonus":"{\"APP_ONLY\":{\"pointsPerLiter\":10,\"pointsPerLiterP4G\":10},\"DONGLE\":{\"pointsPerLiter\":20,\"pointsPerLiterP4G\":20}}","partnerName":"Deutsche Tamoil GmbH","normalized brand":"HEM Tankstelle"},{"id":167,"street":"Geniner Str.","houseNumber":72,"zip":23560,"city":"Lübeck","lat":53.848778,"lon":10.675396,"brand":"HEM","features":"fuelBonus'\r\n'mtsk'\r\n'fastLane","mtsk-id":"e1a15081-2510-9107-e040-0b0a3dfe563c","fuelBonus":"{\"APP_ONLY\":{\"pointsPerLiter\":10,\"pointsPerLiterP4G\":10},\"DONGLE\":{\"pointsPerLiter\":20,\"pointsPerLiterP4G\":20}}","partnerName":"Deutsche Tamoil GmbH","normalized brand":"HEM Tankstelle"},{"id":168,"street":"Poststr.","houseNumber":21,"zip":22956,"city":"Grönwohld","lat":53.639275,"lon":10.409563,"brand":"HEM","features":"mtsk'\r\n'fuelBonus'\r\n'fastLane","mtsk-id":"e1a15081-24f5-9107-e040-0b0a3dfe563c","fuelBonus":"{\"APP_ONLY\":{\"pointsPerLiter\":10,\"pointsPerLiterP4G\":10},\"DONGLE\":{\"pointsPerLiter\":20,\"pointsPerLiterP4G\":20}}","partnerName":"Deutsche Tamoil GmbH","normalized brand":"HEM Tankstelle"},{"id":169,"street":"August-Bebel-Damm","houseNumber":7,"zip":39126,"city":"Magdeburg","lat":52.175564,"lon":11.665378,"brand":"HEM","features":"fuelBonus'\r\n'mtsk'\r\n'fastLane","mtsk-id":"e1a15081-2514-9107-e040-0b0a3dfe563c","fuelBonus":"{\"APP_ONLY\":{\"pointsPerLiter\":10,\"pointsPerLiterP4G\":10},\"DONGLE\":{\"pointsPerLiter\":20,\"pointsPerLiterP4G\":20}}","partnerName":"Deutsche Tamoil GmbH","normalized brand":"HEM Tankstelle"},{"id":170,"street":"Gewerbestr.","houseNumber":25,"zip":39167,"city":"Irxleben","lat":52.170837,"lon":11.48509,"brand":"HEM","features":"fuelBonus'\r\n'mtsk'\r\n'fastLane","mtsk-id":"e1a15081-2508-9107-e040-0b0a3dfe563c","fuelBonus":"{\"APP_ONLY\":{\"pointsPerLiter\":10,\"pointsPerLiterP4G\":10},\"DONGLE\":{\"pointsPerLiter\":20,\"pointsPerLiterP4G\":20}}","partnerName":"Deutsche Tamoil GmbH","normalized brand":"HEM Tankstelle"},{"id":171,"street":"Bültenweg","houseNumber":46,"zip":38106,"city":"Braunschweig","lat":52.282253,"lon":10.537219,"brand":"HEM","features":"mtsk'\r\n'fuelBonus'\r\n'fastLane","mtsk-id":"e1a15081-24d3-9107-e040-0b0a3dfe563c","fuelBonus":"{\"APP_ONLY\":{\"pointsPerLiter\":10,\"pointsPerLiterP4G\":10},\"DONGLE\":{\"pointsPerLiter\":20,\"pointsPerLiterP4G\":20}}","partnerName":"Deutsche Tamoil GmbH","normalized brand":"HEM Tankstelle"},{"id":172,"street":"Wittestr.","houseNumber":16,"zip":13509,"city":"Berlin","lat":52.577587,"lon":13.306636,"brand":"HEM","features":"fuelBonus'\r\n'mtsk'\r\n'fastLane","mtsk-id":"e1a15081-24ca-9107-e040-0b0a3dfe563c","fuelBonus":"{\"APP_ONLY\":{\"pointsPerLiter\":10,\"pointsPerLiterP4G\":10},\"DONGLE\":{\"pointsPerLiter\":20,\"pointsPerLiterP4G\":20}}","partnerName":"Deutsche Tamoil GmbH","normalized brand":"HEM Tankstelle"},{"id":173,"street":"Dorfstr.","houseNumber":1,"zip":16341,"city":"Panketal","lat":52.620937,"lon":13.542302,"brand":"HEM","features":"fuelBonus'\r\n'mtsk'\r\n'fastLane","mtsk-id":"e1a15081-2534-9107-e040-0b0a3dfe563c","fuelBonus":"{\"APP_ONLY\":{\"pointsPerLiter\":10,\"pointsPerLiterP4G\":10},\"DONGLE\":{\"pointsPerLiter\":20,\"pointsPerLiterP4G\":20}}","partnerName":"Deutsche Tamoil GmbH","normalized brand":"HEM Tankstelle"},{"id":174,"street":"Huntetor","houseNumber":10,"zip":27793,"city":"Wildeshausen","lat":52.89917,"lon":8.443696,"brand":"HEM","features":"mtsk'\r\n'fuelBonus'\r\n'fastLane","mtsk-id":"e1a15081-262c-9107-e040-0b0a3dfe563c","fuelBonus":"{\"APP_ONLY\":{\"pointsPerLiter\":10,\"pointsPerLiterP4G\":10},\"DONGLE\":{\"pointsPerLiter\":20,\"pointsPerLiterP4G\":20}}","partnerName":"Deutsche Tamoil GmbH","normalized brand":"HEM Tankstelle"},{"id":175,"street":"Westring","houseNumber":28,"zip":27793,"city":"Wildeshausen","lat":52.88793,"lon":8.418403,"brand":"HEM","features":"mtsk'\r\n'fuelBonus'\r\n'fastLane","mtsk-id":"e1a15081-2548-9107-e040-0b0a3dfe563c","fuelBonus":"{\"APP_ONLY\":{\"pointsPerLiter\":10,\"pointsPerLiterP4G\":10},\"DONGLE\":{\"pointsPerLiter\":20,\"pointsPerLiterP4G\":20}}","partnerName":"Deutsche Tamoil GmbH","normalized brand":"HEM Tankstelle"},{"id":176,"street":"Bürgermeister Wegele Str.","houseNumber":15,"zip":86167,"city":"Augsburg","lat":48.397915,"lon":10.926272,"brand":"HEM","features":"fuelBonus'\r\n'mtsk'\r\n'fastLane","mtsk-id":"e1a15081-2559-9107-e040-0b0a3dfe563c","fuelBonus":"{\"APP_ONLY\":{\"pointsPerLiter\":10,\"pointsPerLiterP4G\":10},\"DONGLE\":{\"pointsPerLiter\":20,\"pointsPerLiterP4G\":20}}","partnerName":"Deutsche Tamoil GmbH","normalized brand":"HEM Tankstelle"},{"id":177,"street":"Sulzbacher Str.","houseNumber":152,"zip":71522,"city":"Backnang","lat":48.957054,"lon":9.430753,"brand":"HEM","features":"mtsk'\r\n'fuelBonus'\r\n'fastLane","mtsk-id":"410cc4ae-15b1-4c9e-9a27-fd5315cfe027","fuelBonus":"{\"APP_ONLY\":{\"pointsPerLiter\":10,\"pointsPerLiterP4G\":10},\"DONGLE\":{\"pointsPerLiter\":20,\"pointsPerLiterP4G\":20}}","partnerName":"Deutsche Tamoil GmbH","normalized brand":"HEM Tankstelle"},{"id":178,"street":"Weinstr.","houseNumber":63,"zip":76887,"city":"Bad Bergzabern","lat":49.101067,"lon":8.00035,"brand":"HEM","features":"mtsk'\r\n'fuelBonus'\r\n'fastLane","mtsk-id":"e1a15081-2507-9107-e040-0b0a3dfe563c","fuelBonus":"{\"APP_ONLY\":{\"pointsPerLiter\":10,\"pointsPerLiterP4G\":10},\"DONGLE\":{\"pointsPerLiter\":20,\"pointsPerLiterP4G\":20}}","partnerName":"Deutsche Tamoil GmbH","normalized brand":"HEM Tankstelle"},{"id":179,"street":"Rissener Str.","houseNumber":96,"zip":22880,"city":"Wedel","lat":53.583614,"lon":9.724348,"brand":"HEM","features":"fuelBonus'\r\n'mtsk'\r\n'fastLane","mtsk-id":"e1a15081-254f-9107-e040-0b0a3dfe563c","fuelBonus":"{\"APP_ONLY\":{\"pointsPerLiter\":10,\"pointsPerLiterP4G\":10},\"DONGLE\":{\"pointsPerLiter\":20,\"pointsPerLiterP4G\":20}}","partnerName":"Deutsche Tamoil GmbH","normalized brand":"HEM Tankstelle"},{"id":180,"street":"Bahnhofstr.","houseNumber":17,"zip":31698,"city":"Lindhorst","lat":52.35612,"lon":9.284778,"brand":"HEM","features":"mtsk'\r\n'fuelBonus'\r\n'fastLane","mtsk-id":"e1a15081-25fb-9107-e040-0b0a3dfe563c","fuelBonus":"{\"APP_ONLY\":{\"pointsPerLiter\":10,\"pointsPerLiterP4G\":10},\"DONGLE\":{\"pointsPerLiter\":20,\"pointsPerLiterP4G\":20}}","partnerName":"Deutsche Tamoil GmbH","normalized brand":"HEM Tankstelle"},{"id":181,"street":"Skandinaviendamm","houseNumber":301,"zip":24109,"city":"Kiel","lat":54.32043,"lon":10.051192,"brand":"HEM","features":"mtsk'\r\n'fuelBonus'\r\n'fastLane","mtsk-id":"e1a15081-256a-9107-e040-0b0a3dfe563c","fuelBonus":"{\"APP_ONLY\":{\"pointsPerLiter\":10,\"pointsPerLiterP4G\":10},\"DONGLE\":{\"pointsPerLiter\":20,\"pointsPerLiterP4G\":20}}","partnerName":"Deutsche Tamoil GmbH","normalized brand":"HEM Tankstelle"},{"id":182,"street":"Ebendorfer Chaussee","houseNumber":72,"zip":39128,"city":"Magdeburg","lat":52.16710444,"lon":11.60946024,"brand":"HEM","features":"mtsk'\r\n'fuelBonus'\r\n'fastLane","mtsk-id":"e1a15081-2632-9107-e040-0b0a3dfe563c","fuelBonus":"{\"APP_ONLY\":{\"pointsPerLiter\":10,\"pointsPerLiterP4G\":10},\"DONGLE\":{\"pointsPerLiter\":20,\"pointsPerLiterP4G\":20}}","partnerName":"Deutsche Tamoil GmbH","normalized brand":"HEM Tankstelle"},{"id":183,"street":"Kasseler Str.","houseNumber":55,"zip":99817,"city":"Eisenach","lat":50.981205,"lon":10.301261,"brand":"HEM","features":"mtsk'\r\n'fuelBonus'\r\n'fastLane","mtsk-id":"e1a15081-2611-9107-e040-0b0a3dfe563c","fuelBonus":"{\"APP_ONLY\":{\"pointsPerLiter\":10,\"pointsPerLiterP4G\":10},\"DONGLE\":{\"pointsPerLiter\":20,\"pointsPerLiterP4G\":20}}","partnerName":"Deutsche Tamoil GmbH","normalized brand":"HEM Tankstelle"},{"id":184,"street":"Hannoversche Str.","houseNumber":74,"zip":30926,"city":"Seelze","lat":52.392,"lon":9.609641,"brand":"HEM","features":"mtsk'\r\n'fuelBonus'\r\n'fastLane","mtsk-id":"e1a15081-2536-9107-e040-0b0a3dfe563c","fuelBonus":"{\"APP_ONLY\":{\"pointsPerLiter\":10,\"pointsPerLiterP4G\":10},\"DONGLE\":{\"pointsPerLiter\":20,\"pointsPerLiterP4G\":20}}","partnerName":"Deutsche Tamoil GmbH","normalized brand":"HEM Tankstelle"},{"id":185,"street":"Frankenforster Str.","houseNumber":12,"zip":51427,"city":"Bergisch Gladbach","lat":50.958908,"lon":7.14286,"brand":"HEM","features":"fuelBonus'\r\n'mtsk'\r\n'fastLane","mtsk-id":"e1a15081-2577-9107-e040-0b0a3dfe563c","fuelBonus":"{\"APP_ONLY\":{\"pointsPerLiter\":10,\"pointsPerLiterP4G\":10},\"DONGLE\":{\"pointsPerLiter\":20,\"pointsPerLiterP4G\":20}}","partnerName":"Deutsche Tamoil GmbH","normalized brand":"HEM Tankstelle"},{"id":186,"street":"Mecklenheidestr.","houseNumber":77,"zip":30419,"city":"Hannover","lat":52.4158,"lon":9.678132,"brand":"HEM","features":"fuelBonus'\r\n'mtsk'\r\n'fastLane","mtsk-id":"e1a15081-24fe-9107-e040-0b0a3dfe563c","fuelBonus":"{\"APP_ONLY\":{\"pointsPerLiter\":10,\"pointsPerLiterP4G\":10},\"DONGLE\":{\"pointsPerLiter\":20,\"pointsPerLiterP4G\":20}}","partnerName":"Deutsche Tamoil GmbH","normalized brand":"HEM Tankstelle"},{"id":187,"street":"Triftweg","houseNumber":47,"zip":38350,"city":"Helmstedt","lat":52.23373,"lon":10.99888,"brand":"HEM","features":"mtsk'\r\n'fuelBonus'\r\n'fastLane","mtsk-id":"e1a15081-25c8-9107-e040-0b0a3dfe563c","fuelBonus":"{\"APP_ONLY\":{\"pointsPerLiter\":10,\"pointsPerLiterP4G\":10},\"DONGLE\":{\"pointsPerLiter\":20,\"pointsPerLiterP4G\":20}}","partnerName":"Deutsche Tamoil GmbH","normalized brand":"HEM Tankstelle"},{"id":188,"street":"Waldstr.","houseNumber":172,"zip":68305,"city":"Mannheim","lat":49.523167,"lon":8.502237,"brand":"HEM","features":"mtsk'\r\n'fuelBonus'\r\n'fastLane","mtsk-id":"e1a15081-25ab-9107-e040-0b0a3dfe563c","fuelBonus":"{\"APP_ONLY\":{\"pointsPerLiter\":10,\"pointsPerLiterP4G\":10},\"DONGLE\":{\"pointsPerLiter\":20,\"pointsPerLiterP4G\":20}}","partnerName":"Deutsche Tamoil GmbH","normalized brand":"HEM Tankstelle"},{"id":189,"street":"Rheinallee","houseNumber":187,"zip":55120,"city":"Mainz","lat":50.024284,"lon":8.232127,"brand":"HEM","features":"mtsk'\r\n'fuelBonus'\r\n'fastLane","mtsk-id":"e1a15081-2575-9107-e040-0b0a3dfe563c","fuelBonus":"{\"APP_ONLY\":{\"pointsPerLiter\":10,\"pointsPerLiterP4G\":10},\"DONGLE\":{\"pointsPerLiter\":20,\"pointsPerLiterP4G\":20}}","partnerName":"Deutsche Tamoil GmbH","normalized brand":"HEM Tankstelle"},{"id":190,"street":"Salzgitterstr.","houseNumber":35,"zip":99867,"city":"Gotha","lat":50.94195,"lon":10.730914,"brand":"HEM","features":"mtsk'\r\n'fuelBonus'\r\n'fastLane","mtsk-id":"e1a15081-25bb-9107-e040-0b0a3dfe563c","fuelBonus":"{\"APP_ONLY\":{\"pointsPerLiter\":10,\"pointsPerLiterP4G\":10},\"DONGLE\":{\"pointsPerLiter\":20,\"pointsPerLiterP4G\":20}}","partnerName":"Deutsche Tamoil GmbH","normalized brand":"HEM Tankstelle"},{"id":191,"street":"Bremer Str.","houseNumber":69,"zip":30826,"city":"Garbsen","lat":52.439148,"lon":9.588605,"brand":"HEM","features":"fuelBonus'\r\n'mtsk'\r\n'fastLane","mtsk-id":"e1a15081-24e7-9107-e040-0b0a3dfe563c","fuelBonus":"{\"APP_ONLY\":{\"pointsPerLiter\":10,\"pointsPerLiterP4G\":10},\"DONGLE\":{\"pointsPerLiter\":20,\"pointsPerLiterP4G\":20}}","partnerName":"Deutsche Tamoil GmbH","normalized brand":"HEM Tankstelle"},{"id":192,"street":"Werdohler Str.","houseNumber":2,"zip":17153,"city":"Reuterstadt Stavenhagen","lat":53.68856,"lon":12.919021,"brand":"HEM","features":"fuelBonus'\r\n'mtsk'\r\n'fastLane","mtsk-id":"e1a15081-2528-9107-e040-0b0a3dfe563c","fuelBonus":"{\"APP_ONLY\":{\"pointsPerLiter\":10,\"pointsPerLiterP4G\":10},\"DONGLE\":{\"pointsPerLiter\":20,\"pointsPerLiterP4G\":20}}","partnerName":"Deutsche Tamoil GmbH","normalized brand":"HEM Tankstelle"},{"id":193,"street":"Goldbachstr.","houseNumber":19,"zip":9353,"city":"Oberlungwitz","lat":50.791077,"lon":12.69713,"brand":"HEM","features":"mtsk'\r\n'fuelBonus'\r\n'fastLane","mtsk-id":"e1a15081-251f-9107-e040-0b0a3dfe563c","fuelBonus":"{\"APP_ONLY\":{\"pointsPerLiter\":10,\"pointsPerLiterP4G\":10},\"DONGLE\":{\"pointsPerLiter\":20,\"pointsPerLiterP4G\":20}}","partnerName":"Deutsche Tamoil GmbH","normalized brand":"HEM Tankstelle"},{"id":194,"street":"Stolpener Str.","houseNumber":2,"zip":1477,"city":"Arnsdorf","lat":51.097607,"lon":13.987778,"brand":"HEM","features":"mtsk'\r\n'fuelBonus'\r\n'fastLane","mtsk-id":"e1a15081-24be-9107-e040-0b0a3dfe563c","fuelBonus":"{\"APP_ONLY\":{\"pointsPerLiter\":10,\"pointsPerLiterP4G\":10},\"DONGLE\":{\"pointsPerLiter\":20,\"pointsPerLiterP4G\":20}}","partnerName":"Deutsche Tamoil GmbH","normalized brand":"HEM Tankstelle"},{"id":195,"street":"Eschleber Str.","houseNumber":37,"zip":99867,"city":"Gotha","lat":50.94984,"lon":10.685813,"brand":"HEM","features":"mtsk'\r\n'fuelBonus'\r\n'fastLane","mtsk-id":"e1a15081-256b-9107-e040-0b0a3dfe563c","fuelBonus":"{\"APP_ONLY\":{\"pointsPerLiter\":10,\"pointsPerLiterP4G\":10},\"DONGLE\":{\"pointsPerLiter\":20,\"pointsPerLiterP4G\":20}}","partnerName":"Deutsche Tamoil GmbH","normalized brand":"HEM Tankstelle"},{"id":196,"street":"Herner Str.","houseNumber":100,"zip":44575,"city":"Castrop-Rauxel","lat":51.55048,"lon":7.299336,"brand":"HEM","features":"mtsk'\r\n'fuelBonus'\r\n'fastLane","mtsk-id":"e1a15081-255c-9107-e040-0b0a3dfe563c","fuelBonus":"{\"APP_ONLY\":{\"pointsPerLiter\":10,\"pointsPerLiterP4G\":10},\"DONGLE\":{\"pointsPerLiter\":20,\"pointsPerLiterP4G\":20}}","partnerName":"Deutsche Tamoil GmbH","normalized brand":"HEM Tankstelle"},{"id":197,"street":"Saarlandstr.","houseNumber":2,"zip":25421,"city":"Pinneberg","lat":53.658524,"lon":9.78713,"brand":"HEM","features":"fuelBonus'\r\n'mtsk'\r\n'fastLane","mtsk-id":"e1a15081-2625-9107-e040-0b0a3dfe563c","fuelBonus":"{\"APP_ONLY\":{\"pointsPerLiter\":10,\"pointsPerLiterP4G\":10},\"DONGLE\":{\"pointsPerLiter\":20,\"pointsPerLiterP4G\":20}}","partnerName":"Deutsche Tamoil GmbH","normalized brand":"HEM Tankstelle"},{"id":198,"street":"Helmstedter Str.","houseNumber":9,"zip":38368,"city":"Querenhorst","lat":52.337368,"lon":10.960992,"brand":"HEM","features":"mtsk'\r\n'fuelBonus'\r\n'fastLane","mtsk-id":"e1a15081-25ff-9107-e040-0b0a3dfe563c","fuelBonus":"{\"APP_ONLY\":{\"pointsPerLiter\":10,\"pointsPerLiterP4G\":10},\"DONGLE\":{\"pointsPerLiter\":20,\"pointsPerLiterP4G\":20}}","partnerName":"Deutsche Tamoil GmbH","normalized brand":"HEM Tankstelle"},{"id":199,"street":"Wendenring","houseNumber":30,"zip":38114,"city":"Braunschweig","lat":52.27465,"lon":10.516511,"brand":"HEM","features":"mtsk'\r\n'fuelBonus'\r\n'fastLane","mtsk-id":"e1a15081-25d3-9107-e040-0b0a3dfe563c","fuelBonus":"{\"APP_ONLY\":{\"pointsPerLiter\":10,\"pointsPerLiterP4G\":10},\"DONGLE\":{\"pointsPerLiter\":20,\"pointsPerLiterP4G\":20}}","partnerName":"Deutsche Tamoil GmbH","normalized brand":"HEM Tankstelle"},{"id":200,"street":"Berliner Str.","houseNumber":21,"zip":39175,"city":"Biederitz","lat":52.144756,"lon":11.736799,"brand":"HEM","features":"mtsk'\r\n'fuelBonus'\r\n'fastLane","mtsk-id":"e1a15081-2604-9107-e040-0b0a3dfe563c","fuelBonus":"{\"APP_ONLY\":{\"pointsPerLiter\":10,\"pointsPerLiterP4G\":10},\"DONGLE\":{\"pointsPerLiter\":20,\"pointsPerLiterP4G\":20}}","partnerName":"Deutsche Tamoil GmbH","normalized brand":"HEM Tankstelle"},{"id":201,"street":"Kaulsdorfer Str.","houseNumber":124,"zip":12555,"city":"Berlin","lat":52.471977,"lon":13.57143,"brand":"HEM","features":"fuelBonus'\r\n'mtsk'\r\n'fastLane","mtsk-id":"e1a15081-25a2-9107-e040-0b0a3dfe563c","fuelBonus":"{\"APP_ONLY\":{\"pointsPerLiter\":10,\"pointsPerLiterP4G\":10},\"DONGLE\":{\"pointsPerLiter\":20,\"pointsPerLiterP4G\":20}}","partnerName":"Deutsche Tamoil GmbH","normalized brand":"HEM Tankstelle"},{"id":202,"street":"Hamburger Landstr.","houseNumber":23,"zip":21465,"city":"Wentorf","lat":53.48917,"lon":10.244422,"brand":"HEM","features":"mtsk'\r\n'fuelBonus'\r\n'fastLane","mtsk-id":"e1a15081-2543-9107-e040-0b0a3dfe563c","fuelBonus":"{\"APP_ONLY\":{\"pointsPerLiter\":10,\"pointsPerLiterP4G\":10},\"DONGLE\":{\"pointsPerLiter\":20,\"pointsPerLiterP4G\":20}}","partnerName":"Deutsche Tamoil GmbH","normalized brand":"HEM Tankstelle"},{"id":203,"street":"Hildesheimer Str.","houseNumber":22,"zip":31174,"city":"Schellerten","lat":52.172283,"lon":10.039196,"brand":"HEM","features":"fuelBonus'\r\n'mtsk'\r\n'fastLane","mtsk-id":"e1a15081-252d-9107-e040-0b0a3dfe563c","fuelBonus":"{\"APP_ONLY\":{\"pointsPerLiter\":10,\"pointsPerLiterP4G\":10},\"DONGLE\":{\"pointsPerLiter\":20,\"pointsPerLiterP4G\":20}}","partnerName":"Deutsche Tamoil GmbH","normalized brand":"HEM Tankstelle"},{"id":204,"street":"Str. Der Freundschaft","houseNumber":58,"zip":17438,"city":"Wolgast","lat":54.059036,"lon":13.807712,"brand":"HEM","features":"fuelBonus'\r\n'mtsk'\r\n'fastLane","mtsk-id":"e1a15081-254b-9107-e040-0b0a3dfe563c","fuelBonus":"{\"APP_ONLY\":{\"pointsPerLiter\":10,\"pointsPerLiterP4G\":10},\"DONGLE\":{\"pointsPerLiter\":20,\"pointsPerLiterP4G\":20}}","partnerName":"Deutsche Tamoil GmbH","normalized brand":"HEM Tankstelle"},{"id":205,"street":"Schopsdorfer Chaussee","houseNumber":22,"zip":14793,"city":"Ziesar","lat":52.268806,"lon":12.284264,"brand":"HEM","features":"fuelBonus'\r\n'mtsk'\r\n'fastLane","mtsk-id":"e1a15081-254d-9107-e040-0b0a3dfe563c","fuelBonus":"{\"APP_ONLY\":{\"pointsPerLiter\":10,\"pointsPerLiterP4G\":10},\"DONGLE\":{\"pointsPerLiter\":20,\"pointsPerLiterP4G\":20}}","partnerName":"Deutsche Tamoil GmbH","normalized brand":"HEM Tankstelle"},{"id":206,"street":"Bochumer Str.","houseNumber":110,"zip":44625,"city":"Herne","lat":51.528954,"lon":7.219587,"brand":"HEM","features":"fuelBonus'\r\n'mtsk'\r\n'fastLane","mtsk-id":"e1a15081-255d-9107-e040-0b0a3dfe563c","fuelBonus":"{\"APP_ONLY\":{\"pointsPerLiter\":10,\"pointsPerLiterP4G\":10},\"DONGLE\":{\"pointsPerLiter\":20,\"pointsPerLiterP4G\":20}}","partnerName":"Deutsche Tamoil GmbH","normalized brand":"HEM Tankstelle"},{"id":207,"street":"Attilastr.","houseNumber":124,"zip":12105,"city":"Berlin","lat":52.449085,"lon":13.366024,"brand":"HEM","features":"fuelBonus'\r\n'mtsk'\r\n'fastLane","mtsk-id":"e1a15081-2580-9107-e040-0b0a3dfe563c","fuelBonus":"{\"APP_ONLY\":{\"pointsPerLiter\":10,\"pointsPerLiterP4G\":10},\"DONGLE\":{\"pointsPerLiter\":20,\"pointsPerLiterP4G\":20}}","partnerName":"Deutsche Tamoil GmbH","normalized brand":"HEM Tankstelle"},{"id":208,"street":"Dieskaustr.","houseNumber":155,"zip":4249,"city":"Leipzig","lat":51.307774,"lon":12.3271,"brand":"HEM","features":"mtsk'\r\n'fuelBonus'\r\n'fastLane","mtsk-id":"e1a15081-261d-9107-e040-0b0a3dfe563c","fuelBonus":"{\"APP_ONLY\":{\"pointsPerLiter\":10,\"pointsPerLiterP4G\":10},\"DONGLE\":{\"pointsPerLiter\":20,\"pointsPerLiterP4G\":20}}","partnerName":"Deutsche Tamoil GmbH","normalized brand":"HEM Tankstelle"},{"id":209,"street":"Carl-Zeiss-Str.","houseNumber":2,"zip":37308,"city":"Heilbad Heiligenstadt","lat":51.38506,"lon":10.16562,"brand":"HEM","features":"fuelBonus'\r\n'mtsk'\r\n'fastLane","mtsk-id":"e1a15081-25e2-9107-e040-0b0a3dfe563c","fuelBonus":"{\"APP_ONLY\":{\"pointsPerLiter\":10,\"pointsPerLiterP4G\":10},\"DONGLE\":{\"pointsPerLiter\":20,\"pointsPerLiterP4G\":20}}","partnerName":"Deutsche Tamoil GmbH","normalized brand":"HEM Tankstelle"},{"id":210,"street":"Sülzer Str.","houseNumber":17,"zip":18195,"city":"Tessin","lat":54.030666,"lon":12.470046,"brand":"HEM","features":"fuelBonus'\r\n'mtsk'\r\n'fastLane","mtsk-id":"e1a15081-2539-9107-e040-0b0a3dfe563c","fuelBonus":"{\"APP_ONLY\":{\"pointsPerLiter\":10,\"pointsPerLiterP4G\":10},\"DONGLE\":{\"pointsPerLiter\":20,\"pointsPerLiterP4G\":20}}","partnerName":"Deutsche Tamoil GmbH","normalized brand":"HEM Tankstelle"},{"id":211,"street":"Vockenhauser Str.","houseNumber":14,"zip":78048,"city":"Villingen-Schwenningen","lat":48.070774,"lon":8.457309,"brand":"HEM","features":"mtsk'\r\n'fuelBonus'\r\n'fastLane","mtsk-id":"e1a15081-25b7-9107-e040-0b0a3dfe563c","fuelBonus":"{\"APP_ONLY\":{\"pointsPerLiter\":10,\"pointsPerLiterP4G\":10},\"DONGLE\":{\"pointsPerLiter\":20,\"pointsPerLiterP4G\":20}}","partnerName":"Deutsche Tamoil GmbH","normalized brand":"HEM Tankstelle"},{"id":212,"street":"An Der","houseNumber":"B184","zip":6803,"city":"Greppin","lat":51.63822,"lon":12.278874,"brand":"HEM","features":"mtsk'\r\n'fuelBonus'\r\n'fastLane","mtsk-id":"e1a15081-24f2-9107-e040-0b0a3dfe563c","fuelBonus":"{\"APP_ONLY\":{\"pointsPerLiter\":10,\"pointsPerLiterP4G\":10},\"DONGLE\":{\"pointsPerLiter\":20,\"pointsPerLiterP4G\":20}}","partnerName":"Deutsche Tamoil GmbH","normalized brand":"HEM Tankstelle"},{"id":213,"street":"Gewerbepark Cité","houseNumber":8,"zip":76532,"city":"Baden-Baden","lat":48.783974,"lon":8.194294,"brand":"HEM","features":"mtsk'\r\n'fuelBonus'\r\n'fastLane","mtsk-id":"e1a15081-259d-9107-e040-0b0a3dfe563c","fuelBonus":"{\"APP_ONLY\":{\"pointsPerLiter\":10,\"pointsPerLiterP4G\":10},\"DONGLE\":{\"pointsPerLiter\":20,\"pointsPerLiterP4G\":20}}","partnerName":"Deutsche Tamoil GmbH","normalized brand":"HEM Tankstelle"},{"id":214,"street":"Zähringer Str.","houseNumber":43,"zip":79108,"city":"Freiburg","lat":48.016953,"lon":7.8563333,"brand":"HEM","features":"fuelBonus'\r\n'mtsk'\r\n'fastLane","mtsk-id":"e1a15081-2556-9107-e040-0b0a3dfe563c","fuelBonus":"{\"APP_ONLY\":{\"pointsPerLiter\":10,\"pointsPerLiterP4G\":10},\"DONGLE\":{\"pointsPerLiter\":20,\"pointsPerLiterP4G\":20}}","partnerName":"Deutsche Tamoil GmbH","normalized brand":"HEM Tankstelle"},{"id":215,"street":"Güsener Str.","houseNumber":1,"zip":39317,"city":"Parey","lat":52.376904,"lon":11.983637,"brand":"HEM","features":"mtsk'\r\n'fuelBonus'\r\n'fastLane","mtsk-id":"e1a15081-25e7-9107-e040-0b0a3dfe563c","fuelBonus":"{\"APP_ONLY\":{\"pointsPerLiter\":10,\"pointsPerLiterP4G\":10},\"DONGLE\":{\"pointsPerLiter\":20,\"pointsPerLiterP4G\":20}}","partnerName":"Deutsche Tamoil GmbH","normalized brand":"HEM Tankstelle"},{"id":216,"street":"Hunsrückhöhenstr.","houseNumber":9,"zip":56154,"city":"Boppard","lat":50.21398,"lon":7.549536,"brand":"HEM","features":"fuelBonus'\r\n'mtsk'\r\n'fastLane","mtsk-id":"e1a15081-24d2-9107-e040-0b0a3dfe563c","fuelBonus":"{\"APP_ONLY\":{\"pointsPerLiter\":10,\"pointsPerLiterP4G\":10},\"DONGLE\":{\"pointsPerLiter\":20,\"pointsPerLiterP4G\":20}}","partnerName":"Deutsche Tamoil GmbH","normalized brand":"HEM Tankstelle"},{"id":217,"street":"Vor Dem Celler Tor","houseNumber":25,"zip":31303,"city":"Burgdorf","lat":52.455284,"lon":10.01268,"brand":"HEM","features":"fuelBonus'\r\n'mtsk'\r\n'fastLane","mtsk-id":"e1a15081-24d9-9107-e040-0b0a3dfe563c","fuelBonus":"{\"APP_ONLY\":{\"pointsPerLiter\":10,\"pointsPerLiterP4G\":10},\"DONGLE\":{\"pointsPerLiter\":20,\"pointsPerLiterP4G\":20}}","partnerName":"Deutsche Tamoil GmbH","normalized brand":"HEM Tankstelle"},{"id":218,"street":"Zur Weierhalde","houseNumber":1,"zip":88662,"city":"Überlingen","lat":47.77432,"lon":9.191655,"brand":"HEM","features":"mtsk'\r\n'fuelBonus'\r\n'fastLane","mtsk-id":"e1a15081-257e-9107-e040-0b0a3dfe563c","fuelBonus":"{\"APP_ONLY\":{\"pointsPerLiter\":10,\"pointsPerLiterP4G\":10},\"DONGLE\":{\"pointsPerLiter\":20,\"pointsPerLiterP4G\":20}}","partnerName":"Deutsche Tamoil GmbH","normalized brand":"HEM Tankstelle"},{"id":219,"street":"Schweriner Str.","houseNumber":3,"zip":19061,"city":"Schwerin","lat":53.585888,"lon":11.400054,"brand":"HEM","features":"fuelBonus'\r\n'mtsk'\r\n'fastLane","mtsk-id":"e1a15081-2535-9107-e040-0b0a3dfe563c","fuelBonus":"{\"APP_ONLY\":{\"pointsPerLiter\":10,\"pointsPerLiterP4G\":10},\"DONGLE\":{\"pointsPerLiter\":20,\"pointsPerLiterP4G\":20}}","partnerName":"Deutsche Tamoil GmbH","normalized brand":"HEM Tankstelle"},{"id":220,"street":"Geldertor","houseNumber":1,"zip":47608,"city":"Geldern","lat":51.51502,"lon":6.327776,"brand":"HEM","features":"fuelBonus'\r\n'mtsk'\r\n'fastLane","mtsk-id":"e1a15081-24e9-9107-e040-0b0a3dfe563c","fuelBonus":"{\"APP_ONLY\":{\"pointsPerLiter\":10,\"pointsPerLiterP4G\":10},\"DONGLE\":{\"pointsPerLiter\":20,\"pointsPerLiterP4G\":20}}","partnerName":"Deutsche Tamoil GmbH","normalized brand":"HEM Tankstelle"},{"id":221,"street":"Im Schleeke","houseNumber":45,"zip":38642,"city":"Goslar","lat":51.909966,"lon":10.470509,"brand":"HEM","features":"mtsk'\r\n'fuelBonus'\r\n'fastLane","mtsk-id":"e1a15081-25df-9107-e040-0b0a3dfe563c","fuelBonus":"{\"APP_ONLY\":{\"pointsPerLiter\":10,\"pointsPerLiterP4G\":10},\"DONGLE\":{\"pointsPerLiter\":20,\"pointsPerLiterP4G\":20}}","partnerName":"Deutsche Tamoil GmbH","normalized brand":"HEM Tankstelle"},{"id":222,"street":"Hildesheimer Str.","houseNumber":33,"zip":31162,"city":"Bad Salzdetfurth","lat":52.09483,"lon":10.017529,"brand":"HEM","features":"fuelBonus'\r\n'mtsk'\r\n'fastLane","mtsk-id":"e1a15081-24c2-9107-e040-0b0a3dfe563c","fuelBonus":"{\"APP_ONLY\":{\"pointsPerLiter\":10,\"pointsPerLiterP4G\":10},\"DONGLE\":{\"pointsPerLiter\":20,\"pointsPerLiterP4G\":20}}","partnerName":"Deutsche Tamoil GmbH","normalized brand":"HEM Tankstelle"},{"id":223,"street":"Brüsseler Str.","houseNumber":2,"zip":65552,"city":"Limburg","lat":50.38089,"lon":8.090597,"brand":"HEM","features":"fuelBonus'\r\n'mtsk'\r\n'fastLane","mtsk-id":"e1a15081-25b1-9107-e040-0b0a3dfe563c","fuelBonus":"{\"APP_ONLY\":{\"pointsPerLiter\":10,\"pointsPerLiterP4G\":10},\"DONGLE\":{\"pointsPerLiter\":20,\"pointsPerLiterP4G\":20}}","partnerName":"Deutsche Tamoil GmbH","normalized brand":"HEM Tankstelle"},{"id":224,"street":"Ihlpohler Heerstr.","houseNumber":47,"zip":27721,"city":"Ritterhude","lat":53.18526,"lon":8.706642,"brand":"HEM","features":"mtsk'\r\n'fuelBonus'\r\n'fastLane","mtsk-id":"e1a15081-258c-9107-e040-0b0a3dfe563c","fuelBonus":"{\"APP_ONLY\":{\"pointsPerLiter\":10,\"pointsPerLiterP4G\":10},\"DONGLE\":{\"pointsPerLiter\":20,\"pointsPerLiterP4G\":20}}","partnerName":"Deutsche Tamoil GmbH","normalized brand":"HEM Tankstelle"},{"id":225,"street":"Herrmannstr.","houseNumber":55,"zip":25821,"city":"Bredstedt","lat":54.62304,"lon":8.966978,"brand":"HEM","features":"mtsk'\r\n'fuelBonus'\r\n'fastLane","mtsk-id":"e1a15081-24d6-9107-e040-0b0a3dfe563c","fuelBonus":"{\"APP_ONLY\":{\"pointsPerLiter\":10,\"pointsPerLiterP4G\":10},\"DONGLE\":{\"pointsPerLiter\":20,\"pointsPerLiterP4G\":20}}","partnerName":"Deutsche Tamoil GmbH","normalized brand":"HEM Tankstelle"},{"id":226,"street":"Schulenburger Landstr.","houseNumber":128,"zip":30165,"city":"Hannover","lat":52.40654187,"lon":9.711157344,"brand":"HEM","features":"mtsk'\r\n'fastLane'\r\n'fuelBonus","mtsk-id":"e1a15081-24ff-9107-e040-0b0a3dfe563c","fuelBonus":"{\"APP_ONLY\":{\"pointsPerLiter\":10,\"pointsPerLiterP4G\":10},\"DONGLE\":{\"pointsPerLiter\":20,\"pointsPerLiterP4G\":20}}","partnerName":"Deutsche Tamoil GmbH","normalized brand":"HEM Tankstelle"},{"id":227,"street":"Dessauer Landstr.","houseNumber":82,"zip":6385,"city":"Aken","lat":51.85028,"lon":12.089252,"brand":"HEM","features":"fuelBonus'\r\n'mtsk'\r\n'fastLane","mtsk-id":"e1a15081-24ba-9107-e040-0b0a3dfe563c","fuelBonus":"{\"APP_ONLY\":{\"pointsPerLiter\":10,\"pointsPerLiterP4G\":10},\"DONGLE\":{\"pointsPerLiter\":20,\"pointsPerLiterP4G\":20}}","partnerName":"Deutsche Tamoil GmbH","normalized brand":"HEM Tankstelle"},{"id":228,"street":"Hafenstr.","houseNumber":28,"zip":27576,"city":"Bremerhaven","lat":53.55150697,"lon":8.581420601,"brand":"HEM","features":"mtsk'\r\n'fuelBonus'\r\n'fastLane","mtsk-id":"e1a15081-2607-9107-e040-0b0a3dfe563c","fuelBonus":"{\"APP_ONLY\":{\"pointsPerLiter\":10,\"pointsPerLiterP4G\":10},\"DONGLE\":{\"pointsPerLiter\":20,\"pointsPerLiterP4G\":20}}","partnerName":"Deutsche Tamoil GmbH","normalized brand":"HEM Tankstelle"},{"id":229,"street":"Heinrich-Von-Kleist-Str.","houseNumber":16,"zip":68766,"city":"Hockenheim","lat":49.311466,"lon":8.556791,"brand":"HEM","features":"mtsk'\r\n'fuelBonus'\r\n'fastLane","mtsk-id":"e1a15081-25b5-9107-e040-0b0a3dfe563c","fuelBonus":"{\"APP_ONLY\":{\"pointsPerLiter\":10,\"pointsPerLiterP4G\":10},\"DONGLE\":{\"pointsPerLiter\":20,\"pointsPerLiterP4G\":20}}","partnerName":"Deutsche Tamoil GmbH","normalized brand":"HEM Tankstelle"},{"id":230,"street":"Süllbergstr.","houseNumber":2,"zip":31832,"city":"Springe","lat":52.239048,"lon":9.655892,"brand":"HEM","features":"mtsk'\r\n'fuelBonus'\r\n'fastLane","mtsk-id":"e1a15081-25ee-9107-e040-0b0a3dfe563c","fuelBonus":"{\"APP_ONLY\":{\"pointsPerLiter\":10,\"pointsPerLiterP4G\":10},\"DONGLE\":{\"pointsPerLiter\":20,\"pointsPerLiterP4G\":20}}","partnerName":"Deutsche Tamoil GmbH","normalized brand":"HEM Tankstelle"},{"id":231,"street":"Alte Bundesstr.","houseNumber":9,"zip":27616,"city":"Beverstedt","lat":53.43609,"lon":8.818669,"brand":"HEM","features":"mtsk'\r\n'fuelBonus'\r\n'fastLane","mtsk-id":"e1a15081-258b-9107-e040-0b0a3dfe563c","fuelBonus":"{\"APP_ONLY\":{\"pointsPerLiter\":10,\"pointsPerLiterP4G\":10},\"DONGLE\":{\"pointsPerLiter\":20,\"pointsPerLiterP4G\":20}}","partnerName":"Deutsche Tamoil GmbH","normalized brand":"HEM Tankstelle"},{"id":232,"street":"Reichenbacher Str.","houseNumber":142,"zip":8056,"city":"Zwickau","lat":50.709282,"lon":12.465172,"brand":"HEM","features":"mtsk'\r\n'fuelBonus'\r\n'fastLane","mtsk-id":"e1a15081-25c2-9107-e040-0b0a3dfe563c","fuelBonus":"{\"APP_ONLY\":{\"pointsPerLiter\":10,\"pointsPerLiterP4G\":10},