[
  {
    "id": "",
    "map_id": 1,
    "address": "Döberner Str. 20 3149 Forst",
    "description": "<p>Döberner Str. 20<br/>3149 Forst</p>",
    "pic": "",
    "link": "",
    "icon": "",
    "lat": 51.7163,
    "lng": 14.615,
    "anim": "0",
    "title": "AGIP",
    "infoopen": "0",
    "category": "28",
    "approved": "1",
    "retina": "0",
    "type": "0",
    "did": "",
    "other_data": "a:0:{}"
  },
  {
    "id": "",
    "map_id": 1,
    "address": "Kreillerstr. 220 81825 München",
    "description": "<p>Kreillerstr. 220<br/>81825 München</p>",
    "pic": "",
    "link": "",
    "icon": "",
    "lat": 48.12126164,
    "lng": 11.66370821,
    "anim": "0",
    "title": "ALLGUTH",
    "infoopen": "0",
    "category": "20",
    "approved": "1",
    "retina": "0",
    "type": "0",
    "did": "",
    "other_data": "a:0:{}"
  },
  {
    "id": "",
    "map_id": 1,
    "address": "Von-Kahr-Str. 1 80997 München",
    "description": "<p>Von-Kahr-Str. 1<br/>80997 München</p>",
    "pic": "",
    "link": "",
    "icon": "",
    "lat": 48.17871,
    "lng": 11.48684,
    "anim": "0",
    "title": "ALLGUTH",
    "infoopen": "0",
    "category": "20",
    "approved": "1",
    "retina": "0",
    "type": "0",
    "did": "",
    "other_data": "a:0:{}"
  },
  {
    "id": "",
    "map_id": 1,
    "address": "Münchener Str. 17 86899 Landsberg",
    "description": "<p>Münchener Str. 17<br/>86899 Landsberg</p>",
    "pic": "",
    "link": "",
    "icon": "",
    "lat": 48.05179,
    "lng": 10.89277,
    "anim": "0",
    "title": "ALLGUTH",
    "infoopen": "0",
    "category": "20",
    "approved": "1",
    "retina": "0",
    "type": "0",
    "did": "",
    "other_data": "a:0:{}"
  },
  {
    "id": "",
    "map_id": 1,
    "address": "Münchner Str. 146 85757 Karlsfeld",
    "description": "<p>Münchner Str. 146<br/>85757 Karlsfeld</p>",
    "pic": "",
    "link": "",
    "icon": "",
    "lat": 48.22675,
    "lng": 11.46493,
    "anim": "0",
    "title": "ALLGUTH",
    "infoopen": "0",
    "category": "20",
    "approved": "1",
    "retina": "0",
    "type": "0",
    "did": "",
    "other_data": "a:0:{}"
  },
  {
    "id": "",
    "map_id": 1,
    "address": "Bodenseestr. 231 81243 München",
    "description": "<p>Bodenseestr. 231<br/>81243 München</p>",
    "pic": "",
    "link": "",
    "icon": "",
    "lat": 48.142944,
    "lng": 11.424927,
    "anim": "0",
    "title": "ALLGUTH",
    "infoopen": "0",
    "category": "20",
    "approved": "1",
    "retina": "0",
    "type": "0",
    "did": "",
    "other_data": "a:0:{}"
  },
  {
    "id": "",
    "map_id": 1,
    "address": "Chiemgaustr. 185 81549 München",
    "description": "<p>Chiemgaustr. 185<br/>81549 München</p>",
    "pic": "",
    "link": "",
    "icon": "",
    "lat": 48.1092938,
    "lng": 11.60826266,
    "anim": "0",
    "title": "ALLGUTH",
    "infoopen": "0",
    "category": "20",
    "approved": "1",
    "retina": "0",
    "type": "0",
    "did": "",
    "other_data": "a:0:{}"
  },
  {
    "id": "",
    "map_id": 1,
    "address": "Fürstenrieder Str. 210 81377 München",
    "description": "<p>Fürstenrieder Str. 210<br/>81377 München</p>",
    "pic": "",
    "link": "",
    "icon": "",
    "lat": 48.12082276,
    "lng": 11.50188964,
    "anim": "0",
    "title": "ALLGUTH",
    "infoopen": "0",
    "category": "20",
    "approved": "1",
    "retina": "0",
    "type": "0",
    "did": "",
    "other_data": "a:0:{}"
  },
  {
    "id": "",
    "map_id": 1,
    "address": "Fürstenrieder Str. 175 81377 München",
    "description": "<p>Fürstenrieder Str. 175<br/>81377 München</p>",
    "pic": "",
    "link": "",
    "icon": "",
    "lat": 48.11966328,
    "lng": 11.50326167,
    "anim": "0",
    "title": "ALLGUTH",
    "infoopen": "0",
    "category": "20",
    "approved": "1",
    "retina": "0",
    "type": "0",
    "did": "",
    "other_data": "a:0:{}"
  },
  {
    "id": "",
    "map_id": 1,
    "address": "Boschetsrieder Str. 139 81379 München",
    "description": "<p>Boschetsrieder Str. 139<br/>81379 München</p>",
    "pic": "",
    "link": "",
    "icon": "",
    "lat": 48.097958,
    "lng": 11.511889,
    "anim": "0",
    "title": "ALLGUTH",
    "infoopen": "0",
    "category": "20",
    "approved": "1",
    "retina": "0",
    "type": "0",
    "did": "",
    "other_data": "a:0:{}"
  },
  {
    "id": "",
    "map_id": 1,
    "address": "Landsberger Str. 90 82205 Gilching",
    "description": "<p>Landsberger Str. 90<br/>82205 Gilching</p>",
    "pic": "",
    "link": "",
    "icon": "",
    "lat": 48.09449,
    "lng": 11.283,
    "anim": "0",
    "title": "ALLGUTH",
    "infoopen": "0",
    "category": "20",
    "approved": "1",
    "retina": "0",
    "type": "0",
    "did": "",
    "other_data": "a:0:{}"
  },
  {
    "id": "",
    "map_id": 1,
    "address": "Kreillerstr. 219 81825 München",
    "description": "<p>Kreillerstr. 219<br/>81825 München</p>",
    "pic": "",
    "link": "",
    "icon": "",
    "lat": 48.12197713,
    "lng": 11.66436589,
    "anim": "0",
    "title": "ALLGUTH",
    "infoopen": "0",
    "category": "20",
    "approved": "1",
    "retina": "0",
    "type": "0",
    "did": "",
    "other_data": "a:0:{}"
  },
  {
    "id": "",
    "map_id": 1,
    "address": "Dieselstr. 4 85716 Unterschleißheim",
    "description": "<p>Dieselstr. 4<br/>85716 Unterschleißheim</p>",
    "pic": "",
    "link": "",
    "icon": "",
    "lat": 48.28227903,
    "lng": 11.57283068,
    "anim": "0",
    "title": "ALLGUTH",
    "infoopen": "0",
    "category": "20",
    "approved": "1",
    "retina": "0",
    "type": "0",
    "did": "",
    "other_data": "a:0:{}"
  },
  {
    "id": "",
    "map_id": 1,
    "address": "Georg-Brauchle-Ring 30 80992 München",
    "description": "<p>Georg-Brauchle-Ring 30<br/>80992 München</p>",
    "pic": "",
    "link": "",
    "icon": "",
    "lat": 48.17656409,
    "lng": 11.53538704,
    "anim": "0",
    "title": "ALLGUTH",
    "infoopen": "0",
    "category": "20",
    "approved": "1",
    "retina": "0",
    "type": "0",
    "did": "",
    "other_data": "a:0:{}"
  },
  {
    "id": "",
    "map_id": 1,
    "address": "Obere Bahnhofstr. 58 82110 Germering",
    "description": "<p>Obere Bahnhofstr. 58<br/>82110 Germering</p>",
    "pic": "",
    "link": "",
    "icon": "",
    "lat": 48.12987,
    "lng": 11.35939,
    "anim": "0",
    "title": "ALLGUTH",
    "infoopen": "0",
    "category": "20",
    "approved": "1",
    "retina": "0",
    "type": "0",
    "did": "",
    "other_data": "a:0:{}"
  },
  {
    "id": "",
    "map_id": 1,
    "address": "Geiselbullacher Str. 7 82140 Olching",
    "description": "<p>Geiselbullacher Str. 7<br/>82140 Olching</p>",
    "pic": "",
    "link": "",
    "icon": "",
    "lat": 48.22542377,
    "lng": 11.3343559,
    "anim": "0",
    "title": "ALLGUTH",
    "infoopen": "0",
    "category": "20",
    "approved": "1",
    "retina": "0",
    "type": "0",
    "did": "",
    "other_data": "a:0:{}"
  },
  {
    "id": "",
    "map_id": 1,
    "address": "Hauptstr. 24 85664 Hohenlinden",
    "description": "<p>Hauptstr. 24<br/>85664 Hohenlinden</p>",
    "pic": "",
    "link": "",
    "icon": "",
    "lat": 48.1558408,
    "lng": 11.99895322,
    "anim": "0",
    "title": "ALLGUTH",
    "infoopen": "0",
    "category": "20",
    "approved": "1",
    "retina": "0",
    "type": "0",
    "did": "",
    "other_data": "a:0:{}"
  },
  {
    "id": "",
    "map_id": 1,
    "address": "Kufsteiner Str. 124 83026 Rosenheim",
    "description": "<p>Kufsteiner Str. 124<br/>83026 Rosenheim</p>",
    "pic": "",
    "link": "",
    "icon": "",
    "lat": 47.8390678,
    "lng": 12.119953,
    "anim": "0",
    "title": "ALLGUTH",
    "infoopen": "0",
    "category": "20",
    "approved": "1",
    "retina": "0",
    "type": "0",
    "did": "",
    "other_data": "a:0:{}"
  },
  {
    "id": "",
    "map_id": 1,
    "address": "Leutstettener Str. 17 82319 Starnberg",
    "description": "<p>Leutstettener Str. 17<br/>82319 Starnberg</p>",
    "pic": "",
    "link": "",
    "icon": "",
    "lat": 48.005279,
    "lng": 11.349703,
    "anim": "0",
    "title": "ALLGUTH",
    "infoopen": "0",
    "category": "20",
    "approved": "1",
    "retina": "0",
    "type": "0",
    "did": "",
    "other_data": "a:0:{}"
  },
  {
    "id": "",
    "map_id": 1,
    "address": "Münchener Str. 173 85051 Ingolstadt",
    "description": "<p>Münchener Str. 173<br/>85051 Ingolstadt</p>",
    "pic": "",
    "link": "",
    "icon": "",
    "lat": 48.73523,
    "lng": 11.43851,
    "anim": "0",
    "title": "ALLGUTH",
    "infoopen": "0",
    "category": "20",
    "approved": "1",
    "retina": "0",
    "type": "0",
    "did": "",
    "other_data": "a:0:{}"
  },
  {
    "id": "",
    "map_id": 1,
    "address": "Am Neubruch 7 80997 München",
    "description": "<p>Am Neubruch 7<br/>80997 München</p>",
    "pic": "",
    "link": "",
    "icon": "",
    "lat": 48.192463,
    "lng": 11.499939,
    "anim": "0",
    "title": "ALLGUTH",
    "infoopen": "0",
    "category": "20",
    "approved": "1",
    "retina": "0",
    "type": "0",
    "did": "",
    "other_data": "a:0:{}"
  },
  {
    "id": "",
    "map_id": 1,
    "address": "Dieselstr. 100 85774 Unterföhring",
    "description": "<p>Dieselstr. 100<br/>85774 Unterföhring</p>",
    "pic": "",
    "link": "",
    "icon": "",
    "lat": 48.1803522,
    "lng": 11.65458441,
    "anim": "0",
    "title": "ALLGUTH",
    "infoopen": "0",
    "category": "20",
    "approved": "1",
    "retina": "0",
    "type": "0",
    "did": "",
    "other_data": "a:0:{}"
  },
  {
    "id": "",
    "map_id": 1,
    "address": "Triebstr. 35 80993 München",
    "description": "<p>Triebstr. 35<br/>80993 München</p>",
    "pic": "",
    "link": "",
    "icon": "",
    "lat": 48.18741615,
    "lng": 11.53452337,
    "anim": "0",
    "title": "ALLGUTH",
    "infoopen": "0",
    "category": "20",
    "approved": "1",
    "retina": "0",
    "type": "0",
    "did": "",
    "other_data": "a:0:{}"
  },
  {
    "id": "",
    "map_id": 1,
    "address": "Maarweg 126 50825 Köln",
    "description": "<p>Maarweg 126<br/>50825 Köln</p>",
    "pic": "",
    "link": "",
    "icon": "",
    "lat": 50.94309,
    "lng": 6.898796,
    "anim": "0",
    "title": "ARAL",
    "infoopen": "0",
    "category": "2",
    "approved": "1",
    "retina": "0",
    "type": "0",
    "did": "",
    "other_data": "a:0:{}"
  },
  {
    "id": "",
    "map_id": 1,
    "address": "Äußere-Kanal-Str. 90 50827 Köln",
    "description": "<p>Äußere-Kanal-Str. 90<br/>50827 Köln</p>",
    "pic": "",
    "link": "",
    "icon": "",
    "lat": 50.9585342,
    "lng": 6.905212,
    "anim": "0",
    "title": "ARAL",
    "infoopen": "0",
    "category": "2",
    "approved": "1",
    "retina": "0",
    "type": "0",
    "did": "",
    "other_data": "a:0:{}"
  },
  {
    "id": "",
    "map_id": 1,
    "address": "Leonberger Str. 76 71272 Renningen",
    "description": "<p>Leonberger Str. 76<br/>71272 Renningen</p>",
    "pic": "",
    "link": "",
    "icon": "",
    "lat": 48.7679749,
    "lng": 8.944295,
    "anim": "0",
    "title": "ARAL",
    "infoopen": "0",
    "category": "2",
    "approved": "1",
    "retina": "0",
    "type": "0",
    "did": "",
    "other_data": "a:0:{}"
  },
  {
    "id": "",
    "map_id": 1,
    "address": "Kölner Str. 36-40 50226 Frechen",
    "description": "<p>Kölner Str. 36-40<br/>50226 Frechen</p>",
    "pic": "",
    "link": "",
    "icon": "",
    "lat": 50.91059,
    "lng": 6.817882,
    "anim": "0",
    "title": "ARAL",
    "infoopen": "0",
    "category": "2",
    "approved": "1",
    "retina": "0",
    "type": "0",
    "did": "",
    "other_data": "a:0:{}"
  },
  {
    "id": "",
    "map_id": 1,
    "address": "Nebelhornstr. 8 87719 Mindelheim",
    "description": "<p>Nebelhornstr. 8<br/>87719 Mindelheim</p>",
    "pic": "",
    "link": "",
    "icon": "",
    "lat": 48.0360832,
    "lng": 10.5013714,
    "anim": "0",
    "title": "ARAL",
    "infoopen": "0",
    "category": "2",
    "approved": "1",
    "retina": "0",
    "type": "0",
    "did": "",
    "other_data": "a:0:{}"
  },
  {
    "id": "",
    "map_id": 1,
    "address": "Brücker Landstr. 22a 14806 Belzig",
    "description": "<p>Brücker Landstr. 22a<br/>14806 Belzig</p>",
    "pic": "",
    "link": "",
    "icon": "",
    "lat": 52.1447,
    "lng": 12.6128559,
    "anim": "0",
    "title": "ARAL",
    "infoopen": "0",
    "category": "2",
    "approved": "1",
    "retina": "0",
    "type": "0",
    "did": "",
    "other_data": "a:0:{}"
  },
  {
    "id": "",
    "map_id": 1,
    "address": "Edisonstr. 14a 86199 Augsburg",
    "description": "<p>Edisonstr. 14a<br/>86199 Augsburg</p>",
    "pic": "",
    "link": "",
    "icon": "",
    "lat": 48.344738,
    "lng": 10.8852787,
    "anim": "0",
    "title": "ARAL",
    "infoopen": "0",
    "category": "2",
    "approved": "1",
    "retina": "0",
    "type": "0",
    "did": "",
    "other_data": "a:0:{}"
  },
  {
    "id": "",
    "map_id": 1,
    "address": "Görschlitzer Str. 7 4849 Bad Düben",
    "description": "<p>Görschlitzer Str. 7<br/>4849 Bad Düben</p>",
    "pic": "",
    "link": "",
    "icon": "",
    "lat": 51.58997,
    "lng": 12.6019516,
    "anim": "0",
    "title": "ARAL",
    "infoopen": "0",
    "category": "2",
    "approved": "1",
    "retina": "0",
    "type": "0",
    "did": "",
    "other_data": "a:0:{}"
  },
  {
    "id": "",
    "map_id": 1,
    "address": "Robert-Bosch-Str. 40 88131 Lindau",
    "description": "<p>Robert-Bosch-Str. 40<br/>88131 Lindau</p>",
    "pic": "",
    "link": "",
    "icon": "",
    "lat": 47.5476952,
    "lng": 9.728079,
    "anim": "0",
    "title": "ARAL",
    "infoopen": "0",
    "category": "2",
    "approved": "1",
    "retina": "0",
    "type": "0",
    "did": "",
    "other_data": "a:0:{}"
  },
  {
    "id": "",
    "map_id": 1,
    "address": "Kaufbeurer Str. 5 86830 Schwabmünchen",
    "description": "<p>Kaufbeurer Str. 5<br/>86830 Schwabmünchen</p>",
    "pic": "",
    "link": "",
    "icon": "",
    "lat": 48.17588,
    "lng": 10.7576876,
    "anim": "0",
    "title": "ARAL",
    "infoopen": "0",
    "category": "2",
    "approved": "1",
    "retina": "0",
    "type": "0",
    "did": "",
    "other_data": "a:0:{}"
  },
  {
    "id": "",
    "map_id": 1,
    "address": "Wasseralfinger Str. 66 73434 Aalen-Fachsenfeld",
    "description": "<p>Wasseralfinger Str. 66<br/>73434 Aalen-Fachsenfeld</p>",
    "pic": "",
    "link": "",
    "icon": "",
    "lat": 48.8784866,
    "lng": 10.0499964,
    "anim": "0",
    "title": "ARAL",
    "infoopen": "0",
    "category": "2",
    "approved": "1",
    "retina": "0",
    "type": "0",
    "did": "",
    "other_data": "a:0:{}"
  },
  {
    "id": "",
    "map_id": 1,
    "address": "Bezirksstr. 16 67122 Altrip",
    "description": "<p>Bezirksstr. 16<br/>67122 Altrip</p>",
    "pic": "",
    "link": "",
    "icon": "",
    "lat": 49.434967,
    "lng": 8.484531,
    "anim": "0",
    "title": "ARAL",
    "infoopen": "0",
    "category": "2",
    "approved": "1",
    "retina": "0",
    "type": "0",
    "did": "",
    "other_data": "a:0:{}"
  },
  {
    "id": "",
    "map_id": 1,
    "address": "Landsberger Str. 20 86807 Buchloe",
    "description": "<p>Landsberger Str. 20<br/>86807 Buchloe</p>",
    "pic": "",
    "link": "",
    "icon": "",
    "lat": 48.03594,
    "lng": 10.7324829,
    "anim": "0",
    "title": "ARAL",
    "infoopen": "0",
    "category": "2",
    "approved": "1",
    "retina": "0",
    "type": "0",
    "did": "",
    "other_data": "a:0:{}"
  },
  {
    "id": "",
    "map_id": 1,
    "address": "Barmer Str. 44 58332 Schwelm",
    "description": "<p>Barmer Str. 44<br/>58332 Schwelm</p>",
    "pic": "",
    "link": "",
    "icon": "",
    "lat": 51.2806053,
    "lng": 7.278696,
    "anim": "0",
    "title": "ARAL",
    "infoopen": "0",
    "category": "2",
    "approved": "1",
    "retina": "0",
    "type": "0",
    "did": "",
    "other_data": "a:0:{}"
  },
  {
    "id": "",
    "map_id": 1,
    "address": "Berliner Str. 111 51063 Köln",
    "description": "<p>Berliner Str. 111<br/>51063 Köln</p>",
    "pic": "",
    "link": "",
    "icon": "",
    "lat": 50.9738,
    "lng": 7.012554,
    "anim": "0",
    "title": "ARAL",
    "infoopen": "0",
    "category": "2",
    "approved": "1",
    "retina": "0",
    "type": "0",
    "did": "",
    "other_data": "a:0:{}"
  },
  {
    "id": "",
    "map_id": 1,
    "address": "Altenberger Str. 93 42929 Wermelskirchen",
    "description": "<p>Altenberger Str. 93<br/>42929 Wermelskirchen</p>",
    "pic": "",
    "link": "",
    "icon": "",
    "lat": 51.091156,
    "lng": 7.186871,
    "anim": "0",
    "title": "ARAL",
    "infoopen": "0",
    "category": "2",
    "approved": "1",
    "retina": "0",
    "type": "0",
    "did": "",
    "other_data": "a:0:{}"
  },
  {
    "id": "",
    "map_id": 1,
    "address": "Beuchaer Str. 73 4821 Brandis",
    "description": "<p>Beuchaer Str. 73<br/>4821 Brandis</p>",
    "pic": "",
    "link": "",
    "icon": "",
    "lat": 51.3299141,
    "lng": 12.5928259,
    "anim": "0",
    "title": "ARAL",
    "infoopen": "0",
    "category": "2",
    "approved": "1",
    "retina": "0",
    "type": "0",
    "did": "",
    "other_data": "a:0:{}"
  },
  {
    "id": "",
    "map_id": 1,
    "address": "Bahnhofstr. 57 52388 Nörvenich",
    "description": "<p>Bahnhofstr. 57<br/>52388 Nörvenich</p>",
    "pic": "",
    "link": "",
    "icon": "",
    "lat": 50.8097343,
    "lng": 6.636635,
    "anim": "0",
    "title": "ARAL",
    "infoopen": "0",
    "category": "2",
    "approved": "1",
    "retina": "0",
    "type": "0",
    "did": "",
    "other_data": "a:0:{}"
  },
  {
    "id": "",
    "map_id": 1,
    "address": "Kurt-Schumacher-Damm 12 49078 Osnabrück",
    "description": "<p>Kurt-Schumacher-Damm 12<br/>49078 Osnabrück</p>",
    "pic": "",
    "link": "",
    "icon": "",
    "lat": 52.2706223,
    "lng": 8.024833,
    "anim": "0",
    "title": "ARAL",
    "infoopen": "0",
    "category": "2",
    "approved": "1",
    "retina": "0",
    "type": "0",
    "did": "",
    "other_data": "a:0:{}"
  },
  {
    "id": "",
    "map_id": 1,
    "address": "Pasinger Str. 50 82166 Gräfelfing",
    "description": "<p>Pasinger Str. 50<br/>82166 Gräfelfing</p>",
    "pic": "",
    "link": "",
    "icon": "",
    "lat": 48.1181,
    "lng": 11.44267,
    "anim": "0",
    "title": "ARAL",
    "infoopen": "0",
    "category": "2",
    "approved": "1",
    "retina": "0",
    "type": "0",
    "did": "",
    "other_data": "a:0:{}"
  },
  {
    "id": "",
    "map_id": 1,
    "address": "Neckaraue 2 71686 Remseck",
    "description": "<p>Neckaraue 2<br/>71686 Remseck</p>",
    "pic": "",
    "link": "",
    "icon": "",
    "lat": 48.8901978,
    "lng": 9.271213,
    "anim": "0",
    "title": "ARAL",
    "infoopen": "0",
    "category": "2",
    "approved": "1",
    "retina": "0",
    "type": "0",
    "did": "",
    "other_data": "a:0:{}"
  },
  {
    "id": "",
    "map_id": 1,
    "address": "Bottroper Str. 298a 45356 Essen",
    "description": "<p>Bottroper Str. 298a<br/>45356 Essen</p>",
    "pic": "",
    "link": "",
    "icon": "",
    "lat": 51.4843674,
    "lng": 6.975781,
    "anim": "0",
    "title": "ARAL",
    "infoopen": "0",
    "category": "2",
    "approved": "1",
    "retina": "0",
    "type": "0",
    "did": "",
    "other_data": "a:0:{}"
  },
  {
    "id": "",
    "map_id": 1,
    "address": "Haunstetter Str. 75 86161 Augsburg",
    "description": "<p>Haunstetter Str. 75<br/>86161 Augsburg</p>",
    "pic": "",
    "link": "",
    "icon": "",
    "lat": 48.3462753,
    "lng": 10.905344,
    "anim": "0",
    "title": "ARAL",
    "infoopen": "0",
    "category": "2",
    "approved": "1",
    "retina": "0",
    "type": "0",
    "did": "",
    "other_data": "a:0:{}"
  },
  {
    "id": "",
    "map_id": 1,
    "address": "Ulmer Str. 13 89340 Leipheim",
    "description": "<p>Ulmer Str. 13<br/>89340 Leipheim</p>",
    "pic": "",
    "link": "",
    "icon": "",
    "lat": 48.4458847,
    "lng": 10.21254,
    "anim": "0",
    "title": "ARAL",
    "infoopen": "0",
    "category": "2",
    "approved": "1",
    "retina": "0",
    "type": "0",
    "did": "",
    "other_data": "a:0:{}"
  },
  {
    "id": "",
    "map_id": 1,
    "address": "Oberstdorfer Str. 13 87435 Kempten",
    "description": "<p>Oberstdorfer Str. 13<br/>87435 Kempten</p>",
    "pic": "",
    "link": "",
    "icon": "",
    "lat": 47.70613,
    "lng": 10.3116608,
    "anim": "0",
    "title": "ARAL",
    "infoopen": "0",
    "category": "2",
    "approved": "1",
    "retina": "0",
    "type": "0",
    "did": "",
    "other_data": "a:0:{}"
  },
  {
    "id": "",
    "map_id": 1,
    "address": "Friedberger Str. 471/4 86161 Augsburg",
    "description": "<p>Friedberger Str. 471/4<br/>86161 Augsburg</p>",
    "pic": "",
    "link": "",
    "icon": "",
    "lat": 48.35563,
    "lng": 10.9190016,
    "anim": "0",
    "title": "ARAL",
    "infoopen": "0",
    "category": "2",
    "approved": "1",
    "retina": "0",
    "type": "0",
    "did": "",
    "other_data": "a:0:{}"
  },
  {
    "id": "",
    "map_id": 1,
    "address": "Leipziger Str. 266 34260 Kaufungen",
    "description": "<p>Leipziger Str. 266<br/>34260 Kaufungen</p>",
    "pic": "",
    "link": "",
    "icon": "",
    "lat": 51.28422,
    "lng": 9.602628,
    "anim": "0",
    "title": "ARAL",
    "infoopen": "0",
    "category": "2",
    "approved": "1",
    "retina": "0",
    "type": "0",
    "did": "",
    "other_data": "a:0:{}"
  },
  {
    "id": "",
    "map_id": 1,
    "address": "Fautenbacher Str. 22 77855 Achern",
    "description": "<p>Fautenbacher Str. 22<br/>77855 Achern</p>",
    "pic": "",
    "link": "",
    "icon": "",
    "lat": 48.6285133,
    "lng": 8.063374,
    "anim": "0",
    "title": "ARAL",
    "infoopen": "0",
    "category": "2",
    "approved": "1",
    "retina": "0",
    "type": "0",
    "did": "",
    "other_data": "a:0:{}"
  },
  {
    "id": "",
    "map_id": 1,
    "address": "Boltensternstr. 350 50735 Köln",
    "description": "<p>Boltensternstr. 350<br/>50735 Köln</p>",
    "pic": "",
    "link": "",
    "icon": "",
    "lat": 50.980299,
    "lng": 6.970215,
    "anim": "0",
    "title": "ARAL",
    "infoopen": "0",
    "category": "2",
    "approved": "1",
    "retina": "0",
    "type": "0",
    "did": "",
    "other_data": "a:0:{}"
  },
  {
    "id": "",
    "map_id": 1,
    "address": "Freienhufener Str. 21 1983 Großräschen",
    "description": "<p>Freienhufener Str. 21<br/>1983 Großräschen</p>",
    "pic": "",
    "link": "",
    "icon": "",
    "lat": 51.5857735,
    "lng": 14.0026836,
    "anim": "0",
    "title": "ARAL",
    "infoopen": "0",
    "category": "2",
    "approved": "1",
    "retina": "0",
    "type": "0",
    "did": "",
    "other_data": "a:0:{}"
  },
  {
    "id": "",
    "map_id": 1,
    "address": "Berliner Str. 170 45144 Essen",
    "description": "<p>Berliner Str. 170<br/>45144 Essen</p>",
    "pic": "",
    "link": "",
    "icon": "",
    "lat": 51.4524536,
    "lng": 6.972793,
    "anim": "0",
    "title": "ARAL",
    "infoopen": "0",
    "category": "2",
    "approved": "1",
    "retina": "0",
    "type": "0",
    "did": "",
    "other_data": "a:0:{}"
  },
  {
    "id": "",
    "map_id": 1,
    "address": "Riedlinger Str. 67 88422 Bad Buchau",
    "description": "<p>Riedlinger Str. 67<br/>88422 Bad Buchau</p>",
    "pic": "",
    "link": "",
    "icon": "",
    "lat": 48.0598946,
    "lng": 9.594575,
    "anim": "0",
    "title": "ARAL",
    "infoopen": "0",
    "category": "2",
    "approved": "1",
    "retina": "0",
    "type": "0",
    "did": "",
    "other_data": "a:0:{}"
  },
  {
    "id": "",
    "map_id": 1,
    "address": "Düsseldorfer Str. 491 51061 Köln",
    "description": "<p>Düsseldorfer Str. 491<br/>51061 Köln</p>",
    "pic": "",
    "link": "",
    "icon": "",
    "lat": 50.98954,
    "lng": 6.998822,
    "anim": "0",
    "title": "ARAL",
    "infoopen": "0",
    "category": "2",
    "approved": "1",
    "retina": "0",
    "type": "0",
    "did": "",
    "other_data": "a:0:{}"
  },
  {
    "id": "",
    "map_id": 1,
    "address": "Merscheider Str. 150 42699 Solingen",
    "description": "<p>Merscheider Str. 150<br/>42699 Solingen</p>",
    "pic": "",
    "link": "",
    "icon": "",
    "lat": 51.165339,
    "lng": 7.025495,
    "anim": "0",
    "title": "BFT",
    "infoopen": "0",
    "category": "8",
    "approved": "1",
    "retina": "0",
    "type": "0",
    "did": "",
    "other_data": "a:0:{}"
  },
  {
    "id": "",
    "map_id": 1,
    "address": "Züricher Str. 46 28325 Bremen",
    "description": "<p>Züricher Str. 46<br/>28325 Bremen</p>",
    "pic": "",
    "link": "",
    "icon": "",
    "lat": 53.0668,
    "lng": 8.94228,
    "anim": "0",
    "title": "BFT",
    "infoopen": "0",
    "category": "8",
    "approved": "1",
    "retina": "0",
    "type": "0",
    "did": "",
    "other_data": "a:0:{}"
  },
  {
    "id": "",
    "map_id": 1,
    "address": "Friedrich-Karl-Str. 90 50735 Köln",
    "description": "<p>Friedrich-Karl-Str. 90<br/>50735 Köln</p>",
    "pic": "",
    "link": "",
    "icon": "",
    "lat": 50.974345,
    "lng": 6.958375,
    "anim": "0",
    "title": "BFT",
    "infoopen": "0",
    "category": "8",
    "approved": "1",
    "retina": "0",
    "type": "0",
    "did": "",
    "other_data": "a:0:{}"
  },
  {
    "id": "",
    "map_id": 1,
    "address": "Brunnenstr. 121 32584 Löhne",
    "description": "<p>Brunnenstr. 121<br/>32584 Löhne</p>",
    "pic": "",
    "link": "",
    "icon": "",
    "lat": 52.1851,
    "lng": 8.69447,
    "anim": "0",
    "title": "BFT",
    "infoopen": "0",
    "category": "8",
    "approved": "1",
    "retina": "0",
    "type": "0",
    "did": "",
    "other_data": "a:0:{}"
  },
  {
    "id": "",
    "map_id": 1,
    "address": "Neue Str. 3 37643 Negenborn",
    "description": "<p>Neue Str. 3<br/>37643 Negenborn</p>",
    "pic": "",
    "link": "",
    "icon": "",
    "lat": 51.8848,
    "lng": 9.56591,
    "anim": "0",
    "title": "BFT",
    "infoopen": "0",
    "category": "8",
    "approved": "1",
    "retina": "0",
    "type": "0",
    "did": "",
    "other_data": "a:0:{}"
  },
  {
    "id": "",
    "map_id": 1,
    "address": "Bahnhofstr. 46 32105 Bad Salzuflen",
    "description": "<p>Bahnhofstr. 46<br/>32105 Bad Salzuflen</p>",
    "pic": "",
    "link": "",
    "icon": "",
    "lat": 52.0813,
    "lng": 8.74293,
    "anim": "0",
    "title": "BFT",
    "infoopen": "0",
    "category": "8",
    "approved": "1",
    "retina": "0",
    "type": "0",
    "did": "",
    "other_data": "a:0:{}"
  },
  {
    "id": "",
    "map_id": 1,
    "address": "Wilhelmshöhe 3 56766 Auderath",
    "description": "<p>Wilhelmshöhe 3<br/>56766 Auderath</p>",
    "pic": "",
    "link": "",
    "icon": "",
    "lat": 50.19128374,
    "lng": 7.017785311,
    "anim": "0",
    "title": "BFT",
    "infoopen": "0",
    "category": "8",
    "approved": "1",
    "retina": "0",
    "type": "0",
    "did": "",
    "other_data": "a:0:{}"
  },
  {
    "id": "",
    "map_id": 1,
    "address": "Sebastianstr. 104 53474 Bad Neuenahr",
    "description": "<p>Sebastianstr. 104<br/>53474 Bad Neuenahr</p>",
    "pic": "",
    "link": "",
    "icon": "",
    "lat": 50.5455,
    "lng": 7.12072,
    "anim": "0",
    "title": "BFT",
    "infoopen": "0",
    "category": "8",
    "approved": "1",
    "retina": "0",
    "type": "0",
    "did": "",
    "other_data": "a:0:{}"
  },
  {
    "id": "",
    "map_id": 1,
    "address": "Gotenstr. 4 33647 Bielefeld",
    "description": "<p>Gotenstr. 4<br/>33647 Bielefeld</p>",
    "pic": "",
    "link": "",
    "icon": "",
    "lat": 51.9894,
    "lng": 8.51,
    "anim": "0",
    "title": "BFT",
    "infoopen": "0",
    "category": "8",
    "approved": "1",
    "retina": "0",
    "type": "0",
    "did": "",
    "other_data": "a:0:{}"
  },
  {
    "id": "",
    "map_id": 1,
    "address": "Osterholzer Heerstr. 161 28307 Bremen",
    "description": "<p>Osterholzer Heerstr. 161<br/>28307 Bremen</p>",
    "pic": "",
    "link": "",
    "icon": "",
    "lat": 53.0578,
    "lng": 8.9483,
    "anim": "0",
    "title": "BFT",
    "infoopen": "0",
    "category": "8",
    "approved": "1",
    "retina": "0",
    "type": "0",
    "did": "",
    "other_data": "a:0:{}"
  },
  {
    "id": "",
    "map_id": 1,
    "address": "Karlstr. 7 51379 Leverkusen",
    "description": "<p>Karlstr. 7<br/>51379 Leverkusen</p>",
    "pic": "",
    "link": "",
    "icon": "",
    "lat": 51.062,
    "lng": 7.00481,
    "anim": "0",
    "title": "BFT",
    "infoopen": "0",
    "category": "8",
    "approved": "1",
    "retina": "0",
    "type": "0",
    "did": "",
    "other_data": "a:0:{}"
  },
  {
    "id": "",
    "map_id": 1,
    "address": "Hovestr. 40-42 48431 Rheine",
    "description": "<p>Hovestr. 40-42<br/>48431 Rheine</p>",
    "pic": "",
    "link": "",
    "icon": "",
    "lat": 52.2729,
    "lng": 7.44058,
    "anim": "0",
    "title": "BFT",
    "infoopen": "0",
    "category": "8",
    "approved": "1",
    "retina": "0",
    "type": "0",
    "did": "",
    "other_data": "a:0:{}"
  },
  {
    "id": "",
    "map_id": 1,
    "address": "Allersheimer Str. 5a 37603 Holzminden",
    "description": "<p>Allersheimer Str. 5a<br/>37603 Holzminden</p>",
    "pic": "",
    "link": "",
    "icon": "",
    "lat": 51.8318,
    "lng": 9.45416,
    "anim": "0",
    "title": "BFT",
    "infoopen": "0",
    "category": "8",
    "approved": "1",
    "retina": "0",
    "type": "0",
    "did": "",
    "other_data": "a:0:{}"
  },
  {
    "id": "",
    "map_id": 1,
    "address": "Heeper Str. 294 33607 Bielefeld",
    "description": "<p>Heeper Str. 294<br/>33607 Bielefeld</p>",
    "pic": "",
    "link": "",
    "icon": "",
    "lat": 52.0282,
    "lng": 8.57581,
    "anim": "0",
    "title": "BFT",
    "infoopen": "0",
    "category": "8",
    "approved": "1",
    "retina": "0",
    "type": "0",
    "did": "",
    "other_data": "a:0:{}"
  },
  {
    "id": "",
    "map_id": 1,
    "address": "Südenmauer 2 59227 Ahlen",
    "description": "<p>Südenmauer 2<br/>59227 Ahlen</p>",
    "pic": "",
    "link": "",
    "icon": "",
    "lat": 51.7613,
    "lng": 7.88988,
    "anim": "0",
    "title": "BFT",
    "infoopen": "0",
    "category": "8",
    "approved": "1",
    "retina": "0",
    "type": "0",
    "did": "",
    "other_data": "a:0:{}"
  },
  {
    "id": "",
    "map_id": 1,
    "address": "Wernesgrüner Str. 39 c 8228 Rodewisch",
    "description": "<p>Wernesgrüner Str. 39 c<br/>8228 Rodewisch</p>",
    "pic": "",
    "link": "",
    "icon": "",
    "lat": 50.5323,
    "lng": 12.4315,
    "anim": "0",
    "title": "BFT",
    "infoopen": "0",
    "category": "8",
    "approved": "1",
    "retina": "0",
    "type": "0",
    "did": "",
    "other_data": "a:0:{}"
  },
  {
    "id": "",
    "map_id": 1,
    "address": "Blankenburger Str. 36 13156 Berlin",
    "description": "<p>Blankenburger Str. 36<br/>13156 Berlin</p>",
    "pic": "",
    "link": "",
    "icon": "",
    "lat": 52.582,
    "lng": 13.4096,
    "anim": "0",
    "title": "BFT",
    "infoopen": "0",
    "category": "8",
    "approved": "1",
    "retina": "0",
    "type": "0",
    "did": "",
    "other_data": "a:0:{}"
  },
  {
    "id": "",
    "map_id": 1,
    "address": "Hauptstr. 43 33758 Schloß Holte-Stukenbrock",
    "description": "<p>Hauptstr. 43<br/>33758 Schloß Holte-Stukenbrock</p>",
    "pic": "",
    "link": "",
    "icon": "",
    "lat": 51.90887702,
    "lng": 8.663936377,
    "anim": "0",
    "title": "BFT",
    "infoopen": "0",
    "category": "8",
    "approved": "1",
    "retina": "0",
    "type": "0",
    "did": "",
    "other_data": "a:0:{}"
  },
  {
    "id": "",
    "map_id": 1,
    "address": "Gildehauser Str. 101 48599 Gronau",
    "description": "<p>Gildehauser Str. 101<br/>48599 Gronau</p>",
    "pic": "",
    "link": "",
    "icon": "",
    "lat": 52.2177,
    "lng": 7.03501,
    "anim": "0",
    "title": "BFT",
    "infoopen": "0",
    "category": "8",
    "approved": "1",
    "retina": "0",
    "type": "0",
    "did": "",
    "other_data": "a:0:{}"
  },
  {
    "id": "",
    "map_id": 1,
    "address": "Mühlenstr. 96 25421 Pinneberg",
    "description": "<p>Mühlenstr. 96<br/>25421 Pinneberg</p>",
    "pic": "",
    "link": "",
    "icon": "",
    "lat": 53.6577,
    "lng": 9.7768,
    "anim": "0",
    "title": "BFT",
    "infoopen": "0",
    "category": "8",
    "approved": "1",
    "retina": "0",
    "type": "0",
    "did": "",
    "other_data": "a:0:{}"
  },
  {
    "id": "",
    "map_id": 1,
    "address": "Dessauer Chaussee 11 6385 Aken",
    "description": "<p>Dessauer Chaussee 11<br/>6385 Aken</p>",
    "pic": "",
    "link": "",
    "icon": "",
    "lat": 51.8537,
    "lng": 12.0554,
    "anim": "0",
    "title": "BFT",
    "infoopen": "0",
    "category": "8",
    "approved": "1",
    "retina": "0",
    "type": "0",
    "did": "",
    "other_data": "a:0:{}"
  },
  {
    "id": "",
    "map_id": 1,
    "address": "Arnold-Overbeck-Str. 67 47139 Duisburg",
    "description": "<p>Arnold-Overbeck-Str. 67<br/>47139 Duisburg</p>",
    "pic": "",
    "link": "",
    "icon": "",
    "lat": 51.4835,
    "lng": 6.734,
    "anim": "0",
    "title": "BFT",
    "infoopen": "0",
    "category": "8",
    "approved": "1",
    "retina": "0",
    "type": "0",
    "did": "",
    "other_data": "a:0:{}"
  },
  {
    "id": "",
    "map_id": 1,
    "address": "Wiedenbrücker Str. 12 33332 Gütersloh",
    "description": "<p>Wiedenbrücker Str. 12<br/>33332 Gütersloh</p>",
    "pic": "",
    "link": "",
    "icon": "",
    "lat": 51.895,
    "lng": 8.36781,
    "anim": "0",
    "title": "BFT",
    "infoopen": "0",
    "category": "8",
    "approved": "1",
    "retina": "0",
    "type": "0",
    "did": "",
    "other_data": "a:0:{}"
  },
  {
    "id": "",
    "map_id": 1,
    "address": "Torgauer Str. 118 4347 Leipzig",
    "description": "<p>Torgauer Str. 118<br/>4347 Leipzig</p>",
    "pic": "",
    "link": "",
    "icon": "",
    "lat": 51.3568,
    "lng": 12.4376,
    "anim": "0",
    "title": "BFT",
    "infoopen": "0",
    "category": "8",
    "approved": "1",
    "retina": "0",
    "type": "0",
    "did": "",
    "other_data": "a:0:{}"
  },
  {
    "id": "",
    "map_id": 1,
    "address": "Hasporter Damm 159 27755 Delmenhorst",
    "description": "<p>Hasporter Damm 159<br/>27755 Delmenhorst</p>",
    "pic": "",
    "link": "",
    "icon": "",
    "lat": 53.0341,
    "lng": 8.65099,
    "anim": "0",
    "title": "BFT",
    "infoopen": "0",
    "category": "8",
    "approved": "1",
    "retina": "0",
    "type": "0",
    "did": "",
    "other_data": "a:0:{}"
  },
  {
    "id": "",
    "map_id": 1,
    "address": "Pampower Str. 5 19061 Schwerin",
    "description": "<p>Pampower Str. 5<br/>19061 Schwerin</p>",
    "pic": "",
    "link": "",
    "icon": "",
    "lat": 53.5892,
    "lng": 11.4028,
    "anim": "0",
    "title": "BFT",
    "infoopen": "0",
    "category": "8",
    "approved": "1",
    "retina": "0",
    "type": "0",
    "did": "",
    "other_data": "a:0:{}"
  },
  {
    "id": "",
    "map_id": 1,
    "address": "Riesaer Str. 56 4328 Leipzig",
    "description": "<p>Riesaer Str. 56<br/>4328 Leipzig</p>",
    "pic": "",
    "link": "",
    "icon": "",
    "lat": 51.3454,
    "lng": 12.4493,
    "anim": "0",
    "title": "BFT",
    "infoopen": "0",
    "category": "8",
    "approved": "1",
    "retina": "0",
    "type": "0",
    "did": "",
    "other_data": "a:0:{}"
  },
  {
    "id": "",
    "map_id": 1,
    "address": "Briesker Str. 85 1968 Senftenberg",
    "description": "<p>Briesker Str. 85<br/>1968 Senftenberg</p>",
    "pic": "",
    "link": "",
    "icon": "",
    "lat": 51.50958716,
    "lng": 13.97934079,
    "anim": "0",
    "title": "BFT",
    "infoopen": "0",
    "category": "8",
    "approved": "1",
    "retina": "0",
    "type": "0",
    "did": "",
    "other_data": "a:0:{}"
  },
  {
    "id": "",
    "map_id": 1,
    "address": "Heikendorfer Weg 79 24248 Mönkeberg",
    "description": "<p>Heikendorfer Weg 79<br/>24248 Mönkeberg</p>",
    "pic": "",
    "link": "",
    "icon": "",
    "lat": 54.3489,
    "lng": 10.1879,
    "anim": "0",
    "title": "BFT",
    "infoopen": "0",
    "category": "8",
    "approved": "1",
    "retina": "0",
    "type": "0",
    "did": "",
    "other_data": "a:0:{}"
  },
  {
    "id": "",
    "map_id": 1,
    "address": "Hans-Böckler-Str. 66 40764 Langenfeld",
    "description": "<p>Hans-Böckler-Str. 66<br/>40764 Langenfeld</p>",
    "pic": "",
    "link": "",
    "icon": "",
    "lat": 51.12203916,
    "lng": 6.924845549,
    "anim": "0",
    "title": "BFT",
    "infoopen": "0",
    "category": "8",
    "approved": "1",
    "retina": "0",
    "type": "0",
    "did": "",
    "other_data": "a:0:{}"
  },
  {
    "id": "",
    "map_id": 1,
    "address": "Hauptstr. 150 56170 Bendorf",
    "description": "<p>Hauptstr. 150<br/>56170 Bendorf</p>",
    "pic": "",
    "link": "",
    "icon": "",
    "lat": 50.4263,
    "lng": 7.57205,
    "anim": "0",
    "title": "BFT",
    "infoopen": "0",
    "category": "8",
    "approved": "1",
    "retina": "0",
    "type": "0",
    "did": "",
    "other_data": "a:0:{}"
  },
  {
    "id": "",
    "map_id": 1,
    "address": "Osnabrücker Str. 158 49479 Ibbenbüren",
    "description": "<p>Osnabrücker Str. 158<br/>49479 Ibbenbüren</p>",
    "pic": "",
    "link": "",
    "icon": "",
    "lat": 52.2849,
    "lng": 7.74609,
    "anim": "0",
    "title": "BFT",
    "infoopen": "0",
    "category": "8",
    "approved": "1",
    "retina": "0",
    "type": "0",
    "did": "",
    "other_data": "a:0:{}"
  },
  {
    "id": "",
    "map_id": 1,
    "address": "Heidestr. 95 42549 Velbert",
    "description": "<p>Heidestr. 95<br/>42549 Velbert</p>",
    "pic": "",
    "link": "",
    "icon": "",
    "lat": 51.3313,
    "lng": 7.04033,
    "anim": "0",
    "title": "BFT",
    "infoopen": "0",
    "category": "8",
    "approved": "1",
    "retina": "0",
    "type": "0",
    "did": "",
    "other_data": "a:0:{}"
  },
  {
    "id": "",
    "map_id": 1,
    "address": "Heidbunge 3 24848 Kropp",
    "description": "<p>Heidbunge 3<br/>24848 Kropp</p>",
    "pic": "",
    "link": "",
    "icon": "",
    "lat": 54.3756,
    "lng": 9.54714,
    "anim": "0",
    "title": "BFT",
    "infoopen": "0",
    "category": "8",
    "approved": "1",
    "retina": "0",
    "type": "0",
    "did": "",
    "other_data": "a:0:{}"
  },
  {
    "id": "",
    "map_id": 1,
    "address": "An Der B 92 1 7957 Langenwetzendorf",
    "description": "<p>An Der B 92 1<br/>7957 Langenwetzendorf</p>",
    "pic": "",
    "link": "",
    "icon": "",
    "lat": 50.717236,
    "lng": 12.112013,
    "anim": "0",
    "title": "BFT",
    "infoopen": "0",
    "category": "8",
    "approved": "1",
    "retina": "0",
    "type": "0",
    "did": "",
    "other_data": "a:0:{}"
  },
  {
    "id": "",
    "map_id": 1,
    "address": "Baeyerstr. 1 24536 Neumünster",
    "description": "<p>Baeyerstr. 1<br/>24536 Neumünster</p>",
    "pic": "",
    "link": "",
    "icon": "",
    "lat": 54.10063957,
    "lng": 9.977758527,
    "anim": "0",
    "title": "EDEKA",
    "infoopen": "0",
    "category": "26",
    "approved": "1",
    "retina": "0",
    "type": "0",
    "did": "",
    "other_data": "a:0:{}"
  },
  {
    "id": "",
    "map_id": 1,
    "address": "Münsterstr. 45 49186 Bad Iburg",
    "description": "<p>Münsterstr. 45<br/>49186 Bad Iburg</p>",
    "pic": "",
    "link": "",
    "icon": "",
    "lat": 52.1518,
    "lng": 8.038,
    "anim": "0",
    "title": "FELTA",
    "infoopen": "0",
    "category": "22",
    "approved": "1",
    "retina": "0",
    "type": "0",
    "did": "",
    "other_data": "a:0:{}"
  },
  {
    "id": "",
    "map_id": 1,
    "address": "Mühlenstr. 30 49401 Damme",
    "description": "<p>Mühlenstr. 30<br/>49401 Damme</p>",
    "pic": "",
    "link": "",
    "icon": "",
    "lat": 52.5231,
    "lng": 8.19315,
    "anim": "0",
    "title": "FELTA",
    "infoopen": "0",
    "category": "22",
    "approved": "1",
    "retina": "0",
    "type": "0",
    "did": "",
    "other_data": "a:0:{}"
  },
  {
    "id": "",
    "map_id": 1,
    "address": "Bergweg 41 49393 Lohne",
    "description": "<p>Bergweg 41<br/>49393 Lohne</p>",
    "pic": "",
    "link": "",
    "icon": "",
    "lat": 52.6643,
    "lng": 8.25677,
    "anim": "0",
    "title": "FELTA",
    "infoopen": "0",
    "category": "22",
    "approved": "1",
    "retina": "0",
    "type": "0",
    "did": "",
    "other_data": "a:0:{}"
  },
  {
    "id": "",
    "map_id": 1,
    "address": "Glandorfer Str. 20 48336 Sassenberg",
    "description": "<p>Glandorfer Str. 20<br/>48336 Sassenberg</p>",
    "pic": "",
    "link": "",
    "icon": "",
    "lat": 52.0501,
    "lng": 8.03411,
    "anim": "0",
    "title": "FELTA",
    "infoopen": "0",
    "category": "22",
    "approved": "1",
    "retina": "0",
    "type": "0",
    "did": "",
    "other_data": "a:0:{}"
  },
  {
    "id": "",
    "map_id": 1,
    "address": "Steinhauser Str. 14 26345 Bockhorn",
    "description": "<p>Steinhauser Str. 14<br/>26345 Bockhorn</p>",
    "pic": "",
    "link": "",
    "icon": "",
    "lat": 53.3955,
    "lng": 8.01392,
    "anim": "0",
    "title": "FELTA",
    "infoopen": "0",
    "category": "22",
    "approved": "1",
    "retina": "0",
    "type": "0",
    "did": "",
    "other_data": "a:0:{}"
  },
  {
    "id": "",
    "map_id": 1,
    "address": "Hauptstr. 247 28816 Fahrenhorst",
    "description": "<p>Hauptstr. 247<br/>28816 Fahrenhorst</p>",
    "pic": "",
    "link": "",
    "icon": "",
    "lat": 52.9462,
    "lng": 8.711,
    "anim": "0",
    "title": "FELTA",
    "infoopen": "0",
    "category": "22",
    "approved": "1",
    "retina": "0",
    "type": "0",
    "did": "",
    "other_data": "a:0:{}"
  },
  {
    "id": "",
    "map_id": 1,
    "address": "Celler Str. 25 29525 Uelzen",
    "description": "<p>Celler Str. 25<br/>29525 Uelzen</p>",
    "pic": "",
    "link": "",
    "icon": "",
    "lat": 52.9527,
    "lng": 10.5482,
    "anim": "0",
    "title": "FELTA",
    "infoopen": "0",
    "category": "22",
    "approved": "1",
    "retina": "0",
    "type": "0",
    "did": "",
    "other_data": "a:0:{}"
  },
  {
    "id": "",
    "map_id": 1,
    "address": "Hohes Ufer 2 49624 Löningen",
    "description": "<p>Hohes Ufer 2<br/>49624 Löningen</p>",
    "pic": "",
    "link": "",
    "icon": "",
    "lat": 52.73138224,
    "lng": 7.771730661,
    "anim": "0",
    "title": "FELTA",
    "infoopen": "0",
    "category": "22",
    "approved": "1",
    "retina": "0",
    "type": "0",
    "did": "",
    "other_data": "a:0:{}"
  },
  {
    "id": "",
    "map_id": 1,
    "address": "Falkenrotter Str. 163 49377 Vechta",
    "description": "<p>Falkenrotter Str. 163<br/>49377 Vechta</p>",
    "pic": "",
    "link": "",
    "icon": "",
    "lat": 52.73181818,
    "lng": 8.264194966,
    "anim": "0",
    "title": "FELTA",
    "infoopen": "0",
    "category": "22",
    "approved": "1",
    "retina": "0",
    "type": "0",
    "did": "",
    "other_data": "a:0:{}"
  },
  {
    "id": "",
    "map_id": 1,
    "address": "Visbeker Damm 1b 49429 Visbek",
    "description": "<p>Visbeker Damm 1b<br/>49429 Visbek</p>",
    "pic": "",
    "link": "",
    "icon": "",
    "lat": 52.82668255,
    "lng": 8.304237127,
    "anim": "0",
    "title": "FELTA",
    "infoopen": "0",
    "category": "22",
    "approved": "1",
    "retina": "0",
    "type": "0",
    "did": "",
    "other_data": "a:0:{}"
  },
  {
    "id": "",
    "map_id": 1,
    "address": "Schapers Kamp 1 31311 Uetze",
    "description": "<p>Schapers Kamp 1<br/>31311 Uetze</p>",
    "pic": "",
    "link": "",
    "icon": "",
    "lat": 52.46504375,
    "lng": 10.19028068,
    "anim": "0",
    "title": "Famila Tank",
    "infoopen": "0",
    "category": "24",
    "approved": "1",
    "retina": "0",
    "type": "0",
    "did": "",
    "other_data": "a:0:{}"
  },
  {
    "id": "",
    "map_id": 1,
    "address": "Hauptstr. 38 49152 Bad Essen-Rabber",
    "description": "<p>Hauptstr. 38<br/>49152 Bad Essen-Rabber</p>",
    "pic": "",
    "link": "",
    "icon": "",
    "lat": 52.316688,
    "lng": 8.408558965,
    "anim": "0",
    "title": "Freie Tankstelle",
    "infoopen": "0",
    "category": "25",
    "approved": "1",
    "retina": "0",
    "type": "0",
    "did": "",
    "other_data": "a:0:{}"
  },
  {
    "id": "",
    "map_id": 1,
    "address": "Bielefelder Str. 31 49176 Hilter",
    "description": "<p>Bielefelder Str. 31<br/>49176 Hilter</p>",
    "pic": "",
    "link": "",
    "icon": "",
    "lat": 52.1351,
    "lng": 8.1494,
    "anim": "0",
    "title": "Freie Tankstelle",
    "infoopen": "0",
    "category": "25",
    "approved": "1",
    "retina": "0",
    "type": "0",
    "did": "",
    "other_data": "a:0:{}"
  },
  {
    "id": "",
    "map_id": 1,
    "address": "Bahnhofstr. 16 56414 Wallmerod",
    "description": "<p>Bahnhofstr. 16<br/>56414 Wallmerod</p>",
    "pic": "",
    "link": "",
    "icon": "",
    "lat": 50.48633709,
    "lng": 7.949982762,
    "anim": "0",
    "title": "Freie Tankstelle",
    "infoopen": "0",
    "category": "25",
    "approved": "1",
    "retina": "0",
    "type": "0",
    "did": "",
    "other_data": "a:0:{}"
  },
  {
    "id": "",
    "map_id": 1,
    "address": "Hausener Str. 51 56736 Kottenheim",
    "description": "<p>Hausener Str. 51<br/>56736 Kottenheim</p>",
    "pic": "",
    "link": "",
    "icon": "",
    "lat": 50.34359807,
    "lng": 7.26224184,
    "anim": "0",
    "title": "Freie Tankstelle",
    "infoopen": "0",
    "category": "25",
    "approved": "1",
    "retina": "0",
    "type": "0",
    "did": "",
    "other_data": "a:0:{}"
  },
  {
    "id": "",
    "map_id": 1,
    "address": "Koblenzer Str. 168 56727 Mayen",
    "description": "<p>Koblenzer Str. 168<br/>56727 Mayen</p>",
    "pic": "",
    "link": "",
    "icon": "",
    "lat": 50.32699474,
    "lng": 7.247527242,
    "anim": "0",
    "title": "Freie Tankstelle",
    "infoopen": "0",
    "category": "25",
    "approved": "1",
    "retina": "0",
    "type": "0",
    "did": "",
    "other_data": "a:0:{}"
  },
  {
    "id": "",
    "map_id": 1,
    "address": "Münsterau 215 52224 Stolberg",
    "description": "<p>Münsterau 215<br/>52224 Stolberg</p>",
    "pic": "",
    "link": "",
    "icon": "",
    "lat": 50.73638588,
    "lng": 6.267077923,
    "anim": "0",
    "title": "Freie Tankstelle",
    "infoopen": "0",
    "category": "25",
    "approved": "1",
    "retina": "0",
    "type": "0",
    "did": "",
    "other_data": "a:0:{}"
  },
  {
    "id": "",
    "map_id": 1,
    "address": "Aalener Str. 36 73441 Bopfingen",
    "description": "<p>Aalener Str. 36<br/>73441 Bopfingen</p>",
    "pic": "",
    "link": "",
    "icon": "",
    "lat": 48.86200095,
    "lng": 10.34641743,
    "anim": "0",
    "title": "Freie Tankstelle",
    "infoopen": "0",
    "category": "25",
    "approved": "1",
    "retina": "0",
    "type": "0",
    "did": "",
    "other_data": "a:0:{}"
  },
  {
    "id": "",
    "map_id": 1,
    "address": "Hauptstr. 20 15910 Neu Lübbenau",
    "description": "<p>Hauptstr. 20<br/>15910 Neu Lübbenau</p>",
    "pic": "",
    "link": "",
    "icon": "",
    "lat": 52.0753,
    "lng": 13.8946,
    "anim": "0",
    "title": "Freie Tankstelle",
    "infoopen": "0",
    "category": "25",
    "approved": "1",
    "retina": "0",
    "type": "0",
    "did": "",
    "other_data": "a:0:{}"
  },
  {
    "id": "",
    "map_id": 1,
    "address": "Castroper Str. 174 44791 Bochum",
    "description": "<p>Castroper Str. 174<br/>44791 Bochum</p>",
    "pic": "",
    "link": "",
    "icon": "",
    "lat": 51.489594,
    "lng": 7.238667,
    "anim": "0",
    "title": "GO",
    "infoopen": "0",
    "category": "12",
    "approved": "1",
    "retina": "0",
    "type": "0",
    "did": "",
    "other_data": "a:0:{}"
  },
  {
    "id": "",
    "map_id": 1,
    "address": "Chausseestr. 32 15345 Lichtenow",
    "description": "<p>Chausseestr. 32<br/>15345 Lichtenow</p>",
    "pic": "",
    "link": "",
    "icon": "",
    "lat": 52.4805,
    "lng": 13.9109,
    "anim": "0",
    "title": "GO",
    "infoopen": "0",
    "category": "12",
    "approved": "1",
    "retina": "0",
    "type": "0",
    "did": "",
    "other_data": "a:0:{}"
  },
  {
    "id": "",
    "map_id": 1,
    "address": "Dresdner Str. 46 a 1796 Pirna",
    "description": "<p>Dresdner Str. 46 a<br/>1796 Pirna</p>",
    "pic": "",
    "link": "",
    "icon": "",
    "lat": 50.9575,
    "lng": 13.9165,
    "anim": "0",
    "title": "GO",
    "infoopen": "0",
    "category": "12",
    "approved": "1",
    "retina": "0",
    "type": "0",
    "did": "",
    "other_data": "a:0:{}"
  },
  {
    "id": "",
    "map_id": 1,
    "address": "Müggelpark 35 15537 Gosen",
    "description": "<p>Müggelpark 35<br/>15537 Gosen</p>",
    "pic": "",
    "link": "",
    "icon": "",
    "lat": 52.3962,
    "lng": 13.7206,
    "anim": "0",
    "title": "GO",
    "infoopen": "0",
    "category": "12",
    "approved": "1",
    "retina": "0",
    "type": "0",
    "did": "",
    "other_data": "a:0:{}"
  },
  {
    "id": "",
    "map_id": 1,
    "address": "Jesteburger Chaussee 19 21227 Bendestorf",
    "description": "<p>Jesteburger Chaussee 19<br/>21227 Bendestorf</p>",
    "pic": "",
    "link": "",
    "icon": "",
    "lat": 53.335552,
    "lng": 9.984544,
    "anim": "0",
    "title": "GO",
    "infoopen": "0",
    "category": "12",
    "approved": "1",
    "retina": "0",
    "type": "0",
    "did": "",
    "other_data": "a:0:{}"
  },
  {
    "id": "",
    "map_id": 1,
    "address": "Perleberger Str. 90/91 19322 Wittenberge",
    "description": "<p>Perleberger Str. 90/91<br/>19322 Wittenberge</p>",
    "pic": "",
    "link": "",
    "icon": "",
    "lat": 53.01,
    "lng": 11.7595,
    "anim": "0",
    "title": "GO",
    "infoopen": "0",
    "category": "12",
    "approved": "1",
    "retina": "0",
    "type": "0",
    "did": "",
    "other_data": "a:0:{}"
  },
  {
    "id": "",
    "map_id": 1,
    "address": "Rumburger Str. 3 2708 Löbau",
    "description": "<p>Rumburger Str. 3<br/>2708 Löbau</p>",
    "pic": "",
    "link": "",
    "icon": "",
    "lat": 51.0841,
    "lng": 14.6608,
    "anim": "0",
    "title": "GO",
    "infoopen": "0",
    "category": "12",
    "approved": "1",
    "retina": "0",
    "type": "0",
    "did": "",
    "other_data": "a:0:{}"
  },
  {
    "id": "",
    "map_id": 1,
    "address": "Jahnstr. 23 6766 Wolfen",
    "description": "<p>Jahnstr. 23<br/>6766 Wolfen</p>",
    "pic": "",
    "link": "",
    "icon": "",
    "lat": 51.6519,
    "lng": 12.2639,
    "anim": "0",
    "title": "GO",
    "infoopen": "0",
    "category": "12",
    "approved": "1",
    "retina": "0",
    "type": "0",
    "did": "",
    "other_data": "a:0:{}"
  },
  {
    "id": "",
    "map_id": 1,
    "address": "Woltersdorfer Str. 1 15562 Rüdersdorf",
    "description": "<p>Woltersdorfer Str. 1<br/>15562 Rüdersdorf</p>",
    "pic": "",
    "link": "",
    "icon": "",
    "lat": 52.4655,
    "lng": 13.8057,
    "anim": "0",
    "title": "GO",
    "infoopen": "0",
    "category": "12",
    "approved": "1",
    "retina": "0",
    "type": "0",
    "did": "",
    "other_data": "a:0:{}"
  },
  {
    "id": "",
    "map_id": 1,
    "address": "Dresdner Str. 17 1936 Schwepnitz",
    "description": "<p>Dresdner Str. 17<br/>1936 Schwepnitz</p>",
    "pic": "",
    "link": "",
    "icon": "",
    "lat": 51.3282,
    "lng": 13.9552,
    "anim": "0",
    "title": "GO",
    "infoopen": "0",
    "category": "12",
    "approved": "1",
    "retina": "0",
    "type": "0",
    "did": "",
    "other_data": "a:0:{}"
  },
  {
    "id": "",
    "map_id": 1,
    "address": "Zwickauer Str. 184 9116 Chemnitz",
    "description": "<p>Zwickauer Str. 184<br/>9116 Chemnitz</p>",
    "pic": "",
    "link": "",
    "icon": "",
    "lat": 50.8217,
    "lng": 12.8853,
    "anim": "0",
    "title": "GO",
    "infoopen": "0",
    "category": "12",
    "approved": "1",
    "retina": "0",
    "type": "0",
    "did": "",
    "other_data": "a:0:{}"
  },
  {
    "id": "",
    "map_id": 1,
    "address": "Bautzner Str. 9 2763 Oppach",
    "description": "<p>Bautzner Str. 9<br/>2763 Oppach</p>",
    "pic": "",
    "link": "",
    "icon": "",
    "lat": 51.0612,
    "lng": 14.4993,
    "anim": "0",
    "title": "GO",
    "infoopen": "0",
    "category": "12",
    "approved": "1",
    "retina": "0",
    "type": "0",
    "did": "",
    "other_data": "a:0:{}"
  },
  {
    "id": "",
    "map_id": 1,
    "address": "Zittauer Str. 58 2742 Neusalza-Spremberg",
    "description": "<p>Zittauer Str. 58<br/>2742 Neusalza-Spremberg</p>",
    "pic": "",
    "link": "",
    "icon": "",
    "lat": 51.0364,
    "lng": 14.5441,
    "anim": "0",
    "title": "GO",
    "infoopen": "0",
    "category": "12",
    "approved": "1",
    "retina": "0",
    "type": "0",
    "did": "",
    "other_data": "a:0:{}"
  },
  {
    "id": "",
    "map_id": 1,
    "address": "Hoyerswerdaer Str. 43 2994 Bernsdorf",
    "description": "<p>Hoyerswerdaer Str. 43<br/>2994 Bernsdorf</p>",
    "pic": "",
    "link": "",
    "icon": "",
    "lat": 51.3827,
    "lng": 14.0808,
    "anim": "0",
    "title": "GO",
    "infoopen": "0",
    "category": "12",
    "approved": "1",
    "retina": "0",
    "type": "0",
    "did": "",
    "other_data": "a:0:{}"
  },
  {
    "id": "",
    "map_id": 1,
    "address": "Gewerbegebiet Nord 1 9456 Mildenau",
    "description": "<p>Gewerbegebiet Nord 1<br/>9456 Mildenau</p>",
    "pic": "",
    "link": "",
    "icon": "",
    "lat": 50.6003,
    "lng": 13.0626,
    "anim": "0",
    "title": "GO",
    "infoopen": "0",
    "category": "12",
    "approved": "1",
    "retina": "0",
    "type": "0",
    "did": "",
    "other_data": "a:0:{}"
  },
  {
    "id": "",
    "map_id": 1,
    "address": "Forderstedter Str. 7 39418 Stassfurt",
    "description": "<p>Forderstedter Str. 7<br/>39418 Stassfurt</p>",
    "pic": "",
    "link": "",
    "icon": "",
    "lat": 51.8642,
    "lng": 11.5967,
    "anim": "0",
    "title": "GO",
    "infoopen": "0",
    "category": "12",
    "approved": "1",
    "retina": "0",
    "type": "0",
    "did": "",
    "other_data": "a:0:{}"
  },
  {
    "id": "",
    "map_id": 1,
    "address": "Charlottenburger Str. 61 22045 Hamburg",
    "description": "<p>Charlottenburger Str. 61<br/>22045 Hamburg</p>",
    "pic": "",
    "link": "",
    "icon": "",
    "lat": 53.581608,
    "lng": 10.138535,
    "anim": "0",
    "title": "GO",
    "infoopen": "0",
    "category": "12",
    "approved": "1",
    "retina": "0",
    "type": "0",
    "did": "",
    "other_data": "a:0:{}"
  },
  {
    "id": "",
    "map_id": 1,
    "address": "Magdeburger Chaussee 1b 6406 Bernburg",
    "description": "<p>Magdeburger Chaussee 1b<br/>6406 Bernburg</p>",
    "pic": "",
    "link": "",
    "icon": "",
    "lat": 51.81,
    "lng": 11.7241,
    "anim": "0",
    "title": "GO",
    "infoopen": "0",
    "category": "12",
    "approved": "1",
    "retina": "0",
    "type": "0",
    "did": "",
    "other_data": "a:0:{}"
  },
  {
    "id": "",
    "map_id": 1,
    "address": "Wasserburger Landstr. 285 81827 München",
    "description": "<p>Wasserburger Landstr. 285<br/>81827 München</p>",
    "pic": "",
    "link": "",
    "icon": "",
    "lat": 48.11121,
    "lng": 11.71303,
    "anim": "0",
    "title": "HEM",
    "infoopen": "0",
    "category": "1",
    "approved": "1",
    "retina": "0",
    "type": "0",
    "did": "",
    "other_data": "a:0:{}"
  },
  {
    "id": "",
    "map_id": 1,
    "address": "Geniner Str. 72-74 23560 Lübeck",
    "description": "<p>Geniner Str. 72-74<br/>23560 Lübeck</p>",
    "pic": "",
    "link": "",
    "icon": "",
    "lat": 53.848778,
    "lng": 10.675396,
    "anim": "0",
    "title": "HEM",
    "infoopen": "0",
    "category": "1",
    "approved": "1",
    "retina": "0",
    "type": "0",
    "did": "",
    "other_data": "a:0:{}"
  },
  {
    "id": "",
    "map_id": 1,
    "address": "Poststr. 21 22956 Grönwohld",
    "description": "<p>Poststr. 21<br/>22956 Grönwohld</p>",
    "pic": "",
    "link": "",
    "icon": "",
    "lat": 53.639275,
    "lng": 10.409563,
    "anim": "0",
    "title": "HEM",
    "infoopen": "0",
    "category": "1",
    "approved": "1",
    "retina": "0",
    "type": "0",
    "did": "",
    "other_data": "a:0:{}"
  },
  {
    "id": "",
    "map_id": 1,
    "address": "August-Bebel-Damm 7 39126 Magdeburg",
    "description": "<p>August-Bebel-Damm 7<br/>39126 Magdeburg</p>",
    "pic": "",
    "link": "",
    "icon": "",
    "lat": 52.175564,
    "lng": 11.665378,
    "anim": "0",
    "title": "HEM",
    "infoopen": "0",
    "category": "1",
    "approved": "1",
    "retina": "0",
    "type": "0",
    "did": "",
    "other_data": "a:0:{}"
  },
  {
    "id": "",
    "map_id": 1,
    "address": "Gewerbestr. 25 39167 Irxleben",
    "description": "<p>Gewerbestr. 25<br/>39167 Irxleben</p>",
    "pic": "",
    "link": "",
    "icon": "",
    "lat": 52.170837,
    "lng": 11.48509,
    "anim": "0",
    "title": "HEM",
    "infoopen": "0",
    "category": "1",
    "approved": "1",
    "retina": "0",
    "type": "0",
    "did": "",
    "other_data": "a:0:{}"
  },
  {
    "id": "",
    "map_id": 1,
    "address": "Bültenweg 46 38106 Braunschweig",
    "description": "<p>Bültenweg 46<br/>38106 Braunschweig</p>",
    "pic": "",
    "link": "",
    "icon": "",
    "lat": 52.282253,
    "lng": 10.537219,
    "anim": "0",
    "title": "HEM",
    "infoopen": "0",
    "category": "1",
    "approved": "1",
    "retina": "0",
    "type": "0",
    "did": "",
    "other_data": "a:0:{}"
  },
  {
    "id": "",
    "map_id": 1,
    "address": "Wittestr. 16 13509 Berlin",
    "description": "<p>Wittestr. 16<br/>13509 Berlin</p>",
    "pic": "",
    "link": "",
    "icon": "",
    "lat": 52.577587,
    "lng": 13.306636,
    "anim": "0",
    "title": "HEM",
    "infoopen": "0",
    "category": "1",
    "approved": "1",
    "retina": "0",
    "type": "0",
    "did": "",
    "other_data": "a:0:{}"
  },
  {
    "id": "",
    "map_id": 1,
    "address": "Dorfstr. 1a 16341 Panketal",
    "description": "<p>Dorfstr. 1a<br/>16341 Panketal</p>",
    "pic": "",
    "link": "",
    "icon": "",
    "lat": 52.620937,
    "lng": 13.542302,
    "anim": "0",
    "title": "HEM",
    "infoopen": "0",
    "category": "1",
    "approved": "1",
    "retina": "0",
    "type": "0",
    "did": "",
    "other_data": "a:0:{}"
  },
  {
    "id": "",
    "map_id": 1,
    "address": "Huntetor 10 27793 Wildeshausen",
    "description": "<p>Huntetor 10<br/>27793 Wildeshausen</p>",
    "pic": "",
    "link": "",
    "icon": "",
    "lat": 52.89917,
    "lng": 8.443696,
    "anim": "0",
    "title": "HEM",
    "infoopen": "0",
    "category": "1",
    "approved": "1",
    "retina": "0",
    "type": "0",
    "did": "",
    "other_data": "a:0:{}"
  },
  {
    "id": "",
    "map_id": 1,
    "address": "Westring 28 27793 Wildeshausen",
    "description": "<p>Westring 28<br/>27793 Wildeshausen</p>",
    "pic": "",
    "link": "",
    "icon": "",
    "lat": 52.88793,
    "lng": 8.418403,
    "anim": "0",
    "title": "HEM",
    "infoopen": "0",
    "category": "1",
    "approved": "1",
    "retina": "0",
    "type": "0",
    "did": "",
    "other_data": "a:0:{}"
  },
  {
    "id": "",
    "map_id": 1,
    "address": "Bürgermeister Wegele Str. 15 86167 Augsburg",
    "description": "<p>Bürgermeister Wegele Str. 15<br/>86167 Augsburg</p>",
    "pic": "",
    "link": "",
    "icon": "",
    "lat": 48.397915,
    "lng": 10.926272,
    "anim": "0",
    "title": "HEM",
    "infoopen": "0",
    "category": "1",
    "approved": "1",
    "retina": "0",
    "type": "0",
    "did": "",
    "other_data": "a:0:{}"
  },
  {
    "id": "",
    "map_id": 1,
    "address": "Sulzbacher Str. 152 71522 Backnang",
    "description": "<p>Sulzbacher Str. 152<br/>71522 Backnang</p>",
    "pic": "",
    "link": "",
    "icon": "",
    "lat": 48.957054,
    "lng": 9.430753,
    "anim": "0",
    "title": "HEM",
    "infoopen": "0",
    "category": "1",
    "approved": "1",
    "retina": "0",
    "type": "0",
    "did": "",
    "other_data": "a:0:{}"
  },
  {
    "id": "",
    "map_id": 1,
    "address": "Weinstr. 63 76887 Bad Bergzabern",
    "description": "<p>Weinstr. 63<br/>76887 Bad Bergzabern</p>",
    "pic": "",
    "link": "",
    "icon": "",
    "lat": 49.101067,
    "lng": 8.00035,
    "anim": "0",
    "title": "HEM",
    "infoopen": "0",
    "category": "1",
    "approved": "1",
    "retina": "0",
    "type": "0",
    "did": "",
    "other_data": "a:0:{}"
  },
  {
    "id": "",
    "map_id": 1,
    "address": "Rissener Str. 96-100 22880 Wedel",
    "description": "<p>Rissener Str. 96-100<br/>22880 Wedel</p>",
    "pic": "",
    "link": "",
    "icon": "",
    "lat": 53.583614,
    "lng": 9.724348,
    "anim": "0",
    "title": "HEM",
    "infoopen": "0",
    "category": "1",
    "approved": "1",
    "retina": "0",
    "type": "0",
    "did": "",
    "other_data": "a:0:{}"
  },
  {
    "id": "",
    "map_id": 1,
    "address": "Bahnhofstr. 17 31698 Lindhorst",
    "description": "<p>Bahnhofstr. 17<br/>31698 Lindhorst</p>",
    "pic": "",
    "link": "",
    "icon": "",
    "lat": 52.35612,
    "lng": 9.284778,
    "anim": "0",
    "title": "HEM",
    "infoopen": "0",
    "category": "1",
    "approved": "1",
    "retina": "0",
    "type": "0",
    "did": "",
    "other_data": "a:0:{}"
  },
  {
    "id": "",
    "map_id": 1,
    "address": "Skandinaviendamm 301 24109 Kiel",
    "description": "<p>Skandinaviendamm 301<br/>24109 Kiel</p>",
    "pic": "",
    "link": "",
    "icon": "",
    "lat": 54.32043,
    "lng": 10.051192,
    "anim": "0",
    "title": "HEM",
    "infoopen": "0",
    "category": "1",
    "approved": "1",
    "retina": "0",
    "type": "0",
    "did": "",
    "other_data": "a:0:{}"
  },
  {
    "id": "",
    "map_id": 1,
    "address": "Ebendorfer Chaussee 72 39128 Magdeburg",
    "description": "<p>Ebendorfer Chaussee 72<br/>39128 Magdeburg</p>",
    "pic": "",
    "link": "",
    "icon": "",
    "lat": 52.16710444,
    "lng": 11.60946024,
    "anim": "0",
    "title": "HEM",
    "infoopen": "0",
    "category": "1",
    "approved": "1",
    "retina": "0",
    "type": "0",
    "did": "",
    "other_data": "a:0:{}"
  },
  {
    "id": "",
    "map_id": 1,
    "address": "Kasseler Str. 55 99817 Eisenach",
    "description": "<p>Kasseler Str. 55<br/>99817 Eisenach</p>",
    "pic": "",
    "link": "",
    "icon": "",
    "lat": 50.981205,
    "lng": 10.301261,
    "anim": "0",
    "title": "HEM",
    "infoopen": "0",
    "category": "1",
    "approved": "1",
    "retina": "0",
    "type": "0",
    "did": "",
    "other_data": "a:0:{}"
  },
  {
    "id": "",
    "map_id": 1,
    "address": "Hannoversche Str. 74 30926 Seelze",
    "description": "<p>Hannoversche Str. 74<br/>30926 Seelze</p>",
    "pic": "",
    "link": "",
    "icon": "",
    "lat": 52.392,
    "lng": 9.609641,
    "anim": "0",
    "title": "HEM",
    "infoopen": "0",
    "category": "1",
    "approved": "1",
    "retina": "0",
    "type": "0",
    "did": "",
    "other_data": "a:0:{}"
  },
  {
    "id": "",
    "map_id": 1,
    "address": "Frankenforster Str. 12 51427 Bergisch Gladbach",
    "description": "<p>Frankenforster Str. 12<br/>51427 Bergisch Gladbach</p>",
    "pic": "",
    "link": "",
    "icon": "",
    "lat": 50.958908,
    "lng": 7.14286,
    "anim": "0",
    "title": "HEM",
    "infoopen": "0",
    "category": "1",
    "approved": "1",
    "retina": "0",
    "type": "0",
    "did": "",
    "other_data": "a:0:{}"
  },
  {
    "id": "",
    "map_id": 1,
    "address": "Mecklenheidestr. 77 30419 Hannover",
    "description": "<p>Mecklenheidestr. 77<br/>30419 Hannover</p>",
    "pic": "",
    "link": "",
    "icon": "",
    "lat": 52.4158,
    "lng": 9.678132,
    "anim": "0",
    "title": "HEM",
    "infoopen": "0",
    "category": "1",
    "approved": "1",
    "retina": "0",
    "type": "0",
    "did": "",
    "other_data": "a:0:{}"
  },
  {
    "id": "",
    "map_id": 1,
    "address": "Triftweg 47 38350 Helmstedt",
    "description": "<p>Triftweg 47<br/>38350 Helmstedt</p>",
    "pic": "",
    "link": "",
    "icon": "",
    "lat": 52.23373,
    "lng": 10.99888,
    "anim": "0",
    "title": "HEM",
    "infoopen": "0",
    "category": "1",
    "approved": "1",
    "retina": "0",
    "type": "0",
    "did": "",
    "other_data": "a:0:{}"
  },
  {
    "id": "",
    "map_id": 1,
    "address": "Waldstr. 172 68305 Mannheim",
    "description": "<p>Waldstr. 172<br/>68305 Mannheim</p>",
    "pic": "",
    "link": "",
    "icon": "",
    "lat": 49.523167,
    "lng": 8.502237,
    "anim": "0",
    "title": "HEM",
    "infoopen": "0",
    "category": "1",
    "approved": "1",
    "retina": "0",
    "type": "0",
    "did": "",
    "other_data": "a:0:{}"
  },
  {
    "id": "",
    "map_id": 1,
    "address": "Rheinallee 187 55120 Mainz",
    "description": "<p>Rheinallee 187<br/>55120 Mainz</p>",
    "pic": "",
    "link": "",
    "icon": "",
    "lat": 50.024284,
    "lng": 8.232127,
    "anim": "0",
    "title": "HEM",
    "infoopen": "0",
    "category": "1",
    "approved": "1",
    "retina": "0",
    "type": "0",
    "did": "",
    "other_data": "a:0:{}"
  },
  {
    "id": "",
    "map_id": 1,
    "address": "Salzgitterstr. 35 99867 Gotha",
    "description": "<p>Salzgitterstr. 35<br/>99867 Gotha</p>",
    "pic": "",
    "link": "",
    "icon": "",
    "lat": 50.94195,
    "lng": 10.730914,
    "anim": "0",
    "title": "HEM",
    "infoopen": "0",
    "category": "1",
    "approved": "1",
    "retina": "0",
    "type": "0",
    "did": "",
    "other_data": "a:0:{}"
  },
  {
    "id": "",
    "map_id": 1,
    "address": "Bremer Str. 69 30826 Garbsen",
    "description": "<p>Bremer Str. 69<br/>30826 Garbsen</p>",
    "pic": "",
    "link": "",
    "icon": "",
    "lat": 52.439148,
    "lng": 9.588605,
    "anim": "0",
    "title": "HEM",
    "infoopen": "0",
    "category": "1",
    "approved": "1",
    "retina": "0",
    "type": "0",
    "did": "",
    "other_data": "a:0:{}"
  },
  {
    "id": "",
    "map_id": 1,
    "address": "Werdohler Str. 2 17153 Reuterstadt Stavenhagen",
    "description": "<p>Werdohler Str. 2<br/>17153 Reuterstadt Stavenhagen</p>",
    "pic": "",
    "link": "",
    "icon": "",
    "lat": 53.68856,
    "lng": 12.919021,
    "anim": "0",
    "title": "HEM",
    "infoopen": "0",
    "category": "1",
    "approved": "1",
    "retina": "0",
    "type": "0",
    "did": "",
    "other_data": "a:0:{}"
  },
  {
    "id": "",
    "map_id": 1,
    "address": "Goldbachstr. 19c 9353 Oberlungwitz",
    "description": "<p>Goldbachstr. 19c<br/>9353 Oberlungwitz</p>",
    "pic": "",
    "link": "",
    "icon": "",
    "lat": 50.791077,
    "lng": 12.69713,
    "anim": "0",
    "title": "HEM",
    "infoopen": "0",
    "category": "1",
    "approved": "1",
    "retina": "0",
    "type": "0",
    "did": "",
    "other_data": "a:0:{}"
  },
  {
    "id": "",
    "map_id": 1,
    "address": "Stolpener Str. 2 1477 Arnsdorf",
    "description": "<p>Stolpener Str. 2<br/>1477 Arnsdorf</p>",
    "pic": "",
    "link": "",
    "icon": "",
    "lat": 51.097607,
    "lng": 13.987778,
    "anim": "0",
    "title": "HEM",
    "infoopen": "0",
    "category": "1",
    "approved": "1",
    "retina": "0",
    "type": "0",
    "did": "",
    "other_data": "a:0:{}"
  },
  {
    "id": "",
    "map_id": 1,
    "address": "Eschleber Str. 37 99867 Gotha",
    "description": "<p>Eschleber Str. 37<br/>99867 Gotha</p>",
    "pic": "",
    "link": "",
    "icon": "",
    "lat": 50.94984,
    "lng": 10.685813,
    "anim": "0",
    "title": "HEM",
    "infoopen": "0",
    "category": "1",
    "approved": "1",
    "retina": "0",
    "type": "0",
    "did": "",
    "other_data": "a:0:{}"
  },
  {
    "id": "",
    "map_id": 1,
    "address": "Herner Str. 100 44575 Castrop-Rauxel",
    "description": "<p>Herner Str. 100<br/>44575 Castrop-Rauxel</p>",
    "pic": "",
    "link": "",
    "icon": "",
    "lat": 51.55048,
    "lng": 7.299336,
    "anim": "0",
    "title": "HEM",
    "infoopen": "0",
    "category": "1",
    "approved": "1",
    "retina": "0",
    "type": "0",
    "did": "",
    "other_data": "a:0:{}"
  },
  {
    "id": "",
    "map_id": 1,
    "address": "Saarlandstr. 2 25421 Pinneberg",
    "description": "<p>Saarlandstr. 2<br/>25421 Pinneberg</p>",
    "pic": "",
    "link": "",
    "icon": "",
    "lat": 53.658524,
    "lng": 9.78713,
    "anim": "0",
    "title": "HEM",
    "infoopen": "0",
    "category": "1",
    "approved": "1",
    "retina": "0",
    "type": "0",
    "did": "",
    "other_data": "a:0:{}"
  },
  {
    "id": "",
    "map_id": 1,
    "address": "Helmstedter Str. 9 38368 Querenhorst",
    "description": "<p>Helmstedter Str. 9<br/>38368 Querenhorst</p>",
    "pic": "",
    "link": "",
    "icon": "",
    "lat": 52.337368,
    "lng": 10.960992,
    "anim": "0",
    "title": "HEM",
    "infoopen": "0",
    "category": "1",
    "approved": "1",
    "retina": "0",
    "type": "0",
    "did": "",
    "other_data": "a:0:{}"
  },
  {
    "id": "",
    "map_id": 1,
    "address": "Wendenring 30 38114 Braunschweig",
    "description": "<p>Wendenring 30<br/>38114 Braunschweig</p>",
    "pic": "",
    "link": "",
    "icon": "",
    "lat": 52.27465,
    "lng": 10.516511,
    "anim": "0",
    "title": "HEM",
    "infoopen": "0",
    "category": "1",
    "approved": "1",
    "retina": "0",
    "type": "0",
    "did": "",
    "other_data": "a:0:{}"
  },
  {
    "id": "",
    "map_id": 1,
    "address": "Berliner Str. 21a 39175 Biederitz",
    "description": "<p>Berliner Str. 21a<br/>39175 Biederitz</p>",
    "pic": "",
    "link": "",
    "icon": "",
    "lat": 52.144756,
    "lng": 11.736799,
    "anim": "0",
    "title": "HEM",
    "infoopen": "0",
    "category": "1",
    "approved": "1",
    "retina": "0",
    "type": "0",
    "did": "",
    "other_data": "a:0:{}"
  },
  {
    "id": "",
    "map_id": 1,
    "address": "Kaulsdorfer Str. 124-126 12555 Berlin",
    "description": "<p>Kaulsdorfer Str. 124-126<br/>12555 Berlin</p>",
    "pic": "",
    "link": "",
    "icon": "",
    "lat": 52.471977,
    "lng": 13.57143,
    "anim": "0",
    "title": "HEM",
    "infoopen": "0",
    "category": "1",
    "approved": "1",
    "retina": "0",
    "type": "0",
    "did": "",
    "other_data": "a:0:{}"
  },
  {
    "id": "",
    "map_id": 1,
    "address": "Hamburger Landstr. 23 21465 Wentorf",
    "description": "<p>Hamburger Landstr. 23<br/>21465 Wentorf</p>",
    "pic": "",
    "link": "",
    "icon": "",
    "lat": 53.48917,
    "lng": 10.244422,
    "anim": "0",
    "title": "HEM",
    "infoopen": "0",
    "category": "1",
    "approved": "1",
    "retina": "0",
    "type": "0",
    "did": "",
    "other_data": "a:0:{}"
  },
  {
    "id": "",
    "map_id": 1,
    "address": "Hildesheimer Str. 22 31174 Schellerten",
    "description": "<p>Hildesheimer Str. 22<br/>31174 Schellerten</p>",
    "pic": "",
    "link": "",
    "icon": "",
    "lat": 52.172283,
    "lng": 10.039196,
    "anim": "0",
    "title": "HEM",
    "infoopen": "0",
    "category": "1",
    "approved": "1",
    "retina": "0",
    "type": "0",
    "did": "",
    "other_data": "a:0:{}"
  },
  {
    "id": "",
    "map_id": 1,
    "address": "Str. Der Freundschaft 58a 17438 Wolgast",
    "description": "<p>Str. Der Freundschaft 58a<br/>17438 Wolgast</p>",
    "pic": "",
    "link": "",
    "icon": "",
    "lat": 54.059036,
    "lng": 13.807712,
    "anim": "0",
    "title": "HEM",
    "infoopen": "0",
    "category": "1",
    "approved": "1",
    "retina": "0",
    "type": "0",
    "did": "",
    "other_data": "a:0:{}"
  },
  {
    "id": "",
    "map_id": 1,
    "address": "Schopsdorfer Chaussee 22 14793 Ziesar",
    "description": "<p>Schopsdorfer Chaussee 22<br/>14793 Ziesar</p>",
    "pic": "",
    "link": "",
    "icon": "",
    "lat": 52.268806,
    "lng": 12.284264,
    "anim": "0",
    "title": "HEM",
    "infoopen": "0",
    "category": "1",
    "approved": "1",
    "retina": "0",
    "type": "0",
    "did": "",
    "other_data": "a:0:{}"
  },
  {
    "id": "",
    "map_id": 1,
    "address": "Bochumer Str. 110 44625 Herne",
    "description": "<p>Bochumer Str. 110<br/>44625 Herne</p>",
    "pic": "",
    "link": "",
    "icon": "",
    "lat": 51.528954,
    "lng": 7.219587,
    "anim": "0",
    "title": "HEM",
    "infoopen": "0",
    "category": "1",
    "approved": "1",
    "retina": "0",
    "type": "0",
    "did": "",
    "other_data": "a:0:{}"
  },
  {
    "id": "",
    "map_id": 1,
    "address": "Attilastr. 124 12105 Berlin",
    "description": "<p>Attilastr. 124<br/>12105 Berlin</p>",
    "pic": "",
    "link": "",
    "icon": "",
    "lat": 52.449085,
    "lng": 13.366024,
    "anim": "0",
    "title": "HEM",
    "infoopen": "0",
    "category": "1",
    "approved": "1",
    "retina": "0",
    "type": "0",
    "did": "",
    "other_data": "a:0:{}"
  },
  {
    "id": "",
    "map_id": 1,
    "address": "Dieskaustr. 155 4249 Leipzig",
    "description": "<p>Dieskaustr. 155<br/>4249 Leipzig</p>",
    "pic": "",
    "link": "",
    "icon": "",
    "lat": 51.307774,
    "lng": 12.3271,
    "anim": "0",
    "title": "HEM",
    "infoopen": "0",
    "category": "1",
    "approved": "1",
    "retina": "0",
    "type": "0",
    "did": "",
    "other_data": "a:0:{}"
  },
  {
    "id": "",
    "map_id": 1,
    "address": "Carl-Zeiss-Str. 2 37308 Heilbad Heiligenstadt",
    "description": "<p>Carl-Zeiss-Str. 2<br/>37308 Heilbad Heiligenstadt</p>",
    "pic": "",
    "link": "",
    "icon": "",
    "lat": 51.38506,
    "lng": 10.16562,
    "anim": "0",
    "title": "HEM",
    "infoopen": "0",
    "category": "1",
    "approved": "1",
    "retina": "0",
    "type": "0",
    "did": "",
    "other_data": "a:0:{}"
  },
  {
    "id": "",
    "map_id": 1,
    "address": "Sülzer Str. 17 18195 Tessin",
    "description": "<p>Sülzer Str. 17<br/>18195 Tessin</p>",
    "pic": "",
    "link": "",
    "icon": "",
    "lat": 54.030666,
    "lng": 12.470046,
    "anim": "0",
    "title": "HEM",
    "infoopen": "0",
    "category": "1",
    "approved": "1",
    "retina": "0",
    "type": "0",
    "did": "",
    "other_data": "a:0:{}"
  },
  {
    "id": "",
    "map_id": 1,
    "address": "Vockenhauser Str. 14 78048 Villingen-Schwenningen",
    "description": "<p>Vockenhauser Str. 14<br/>78048 Villingen-Schwenningen</p>",
    "pic": "",
    "link": "",
    "icon": "",
    "lat": 48.070774,
    "lng": 8.457309,
    "anim": "0",
    "title": "HEM",
    "infoopen": "0",
    "category": "1",
    "approved": "1",
    "retina": "0",
    "type": "0",
    "did": "",
    "other_data": "a:0:{}"
  },
  {
    "id": "",
    "map_id": 1,
    "address": "An Der B184 6803 Greppin",
    "description": "<p>An Der B184<br/>6803 Greppin</p>",
    "pic": "",
    "link": "",
    "icon": "",
    "lat": 51.63822,
    "lng": 12.278874,
    "anim": "0",
    "title": "HEM",
    "infoopen": "0",
    "category": "1",
    "approved": "1",
    "retina": "0",
    "type": "0",
    "did": "",
    "other_data": "a:0:{}"
  },
  {
    "id": "",
    "map_id": 1,
    "address": "Gewerbepark Cité 8 76532 Baden-Baden",
    "description": "<p>Gewerbepark Cité 8<br/>76532 Baden-Baden</p>",
    "pic": "",
    "link": "",
    "icon": "",
    "lat": 48.783974,
    "lng": 8.194294,
    "anim": "0",
    "title": "HEM",
    "infoopen": "0",
    "category": "1",
    "approved": "1",
    "retina": "0",
    "type": "0",
    "did": "",
    "other_data": "a:0:{}"
  },
  {
    "id": "",
    "map_id": 1,
    "address": "Zähringer Str. 43 79108 Freiburg",
    "description": "<p>Zähringer Str. 43<br/>79108 Freiburg</p>",
    "pic": "",
    "link": "",
    "icon": "",
    "lat": 48.016953,
    "lng": 7.8563333,
    "anim": "0",
    "title": "HEM",
    "infoopen": "0",
    "category": "1",
    "approved": "1",
    "retina": "0",
    "type": "0",
    "did": "",
    "other_data": "a:0:{}"
  },
  {
    "id": "",
    "map_id": 1,
    "address": "Güsener Str. 1 39317 Parey",
    "description": "<p>Güsener Str. 1<br/>39317 Parey</p>",
    "pic": "",
    "link": "",
    "icon": "",
    "lat": 52.376904,
    "lng": 11.983637,
    "anim": "0",
    "title": "HEM",
    "infoopen": "0",
    "category": "1",
    "approved": "1",
    "retina": "0",
    "type": "0",
    "did": "",
    "other_data": "a:0:{}"
  },
  {
    "id": "",
    "map_id": 1,
    "address": "Hunsrückhöhenstr. 9 56154 Boppard",
    "description": "<p>Hunsrückhöhenstr. 9<br/>56154 Boppard</p>",
    "pic": "",
    "link": "",
    "icon": "",
    "lat": 50.21398,
    "lng": 7.549536,
    "anim": "0",
    "title": "HEM",
    "infoopen": "0",
    "category": "1",
    "approved": "1",
    "retina": "0",
    "type": "0",
    "did": "",
    "other_data": "a:0:{}"
  },
  {
    "id": "",
    "map_id": 1,
    "address": "Vor Dem Celler Tor 25 31303 Burgdorf",
    "description": "<p>Vor Dem Celler Tor 25<br/>31303 Burgdorf</p>",
    "pic": "",
    "link": "",
    "icon": "",
    "lat": 52.455284,
    "lng": 10.01268,
    "anim": "0",
    "title": "HEM",
    "infoopen": "0",
    "category": "1",
    "approved": "1",
    "retina": "0",
    "type": "0",
    "did": "",
    "other_data": "a:0:{}"
  },
  {
    "id": "",
    "map_id": 1,
    "address": "Zur Weierhalde 1 88662 Überlingen",
    "description": "<p>Zur Weierhalde 1<br/>88662 Überlingen</p>",
    "pic": "",
    "link": "",
    "icon": "",
    "lat": 47.77432,
    "lng": 9.191655,
    "anim": "0",
    "title": "HEM",
    "infoopen": "0",
    "category": "1",
    "approved": "1",
    "retina": "0",
    "type": "0",
    "did": "",
    "other_data": "a:0:{}"
  },
  {
    "id": "",
    "map_id": 1,
    "address": "Schweriner Str. 3c 19061 Schwerin",
    "description": "<p>Schweriner Str. 3c<br/>19061 Schwerin</p>",
    "pic": "",
    "link": "",
    "icon": "",
    "lat": 53.585888,
    "lng": 11.400054,
    "anim": "0",
    "title": "HEM",
    "infoopen": "0",
    "category": "1",
    "approved": "1",
    "retina": "0",
    "type": "0",
    "did": "",
    "other_data": "a:0:{}"
  },
  {
    "id": "",
    "map_id": 1,
    "address": "Geldertor 1 47608 Geldern",
    "description": "<p>Geldertor 1<br/>47608 Geldern</p>",
    "pic": "",
    "link": "",
    "icon": "",
    "lat": 51.51502,
    "lng": 6.327776,
    "anim": "0",
    "title": "HEM",
    "infoopen": "0",
    "category": "1",
    "approved": "1",
    "retina": "0",
    "type": "0",
    "did": "",
    "other_data": "a:0:{}"
  },
  {
    "id": "",
    "map_id": 1,
    "address": "Im Schleeke 45 38642 Goslar",
    "description": "<p>Im Schleeke 45<br/>38642 Goslar</p>",
    "pic": "",
    "link": "",
    "icon": "",
    "lat": 51.909966,
    "lng": 10.470509,
    "anim": "0",
    "title": "HEM",
    "infoopen": "0",
    "category": "1",
    "approved": "1",
    "retina": "0",
    "type": "0",
    "did": "",
    "other_data": "a:0:{}"
  },
  {
    "id": "",
    "map_id": 1,
    "address": "Hildesheimer Str. 33 31162 Bad Salzdetfurth",
    "description": "<p>Hildesheimer Str. 33<br/>31162 Bad Salzdetfurth</p>",
    "pic": "",
    "link": "",
    "icon": "",
    "lat": 52.09483,
    "lng": 10.017529,
    "anim": "0",
    "title": "HEM",
    "infoopen": "0",
    "category": "1",
    "approved": "1",
    "retina": "0",
    "type": "0",
    "did": "",
    "other_data": "a:0:{}"
  },
  {
    "id": "",
    "map_id": 1,
    "address": "Brüsseler Str. 2 65552 Limburg",
    "description": "<p>Brüsseler Str. 2<br/>65552 Limburg</p>",
    "pic": "",
    "link": "",
    "icon": "",
    "lat": 50.38089,
    "lng": 8.090597,
    "anim": "0",
    "title": "HEM",
    "infoopen": "0",
    "category": "1",
    "approved": "1",
    "retina": "0",
    "type": "0",
    "did": "",
    "other_data": "a:0:{}"
  },
  {
    "id": "",
    "map_id": 1,
    "address": "Ihlpohler Heerstr. 47 27721 Ritterhude",
    "description": "<p>Ihlpohler Heerstr. 47<br/>27721 Ritterhude</p>",
    "pic": "",
    "link": "",
    "icon": "",
    "lat": 53.18526,
    "lng": 8.706642,
    "anim": "0",
    "title": "HEM",
    "infoopen": "0",
    "category": "1",
    "approved": "1",
    "retina": "0",
    "type": "0",
    "did": "",
    "other_data": "a:0:{}"
  },
  {
    "id": "",
    "map_id": 1,
    "address": "Herrmannstr. 55 25821 Bredstedt",
    "description": "<p>Herrmannstr. 55<br/>25821 Bredstedt</p>",
    "pic": "",
    "link": "",
    "icon": "",
    "lat": 54.62304,
    "lng": 8.966978,
    "anim": "0",
    "title": "HEM",
    "infoopen": "0",
    "category": "1",
    "approved": "1",
    "retina": "0",
    "type": "0",
    "did": "",
    "other_data": "a:0:{}"
  },
  {
    "id": "",
    "map_id": 1,
    "address": "Schulenburger Landstr. 128 30165 Hannover",
    "description": "<p>Schulenburger Landstr. 128<br/>30165 Hannover</p>",
    "pic": "",
    "link": "",
    "icon": "",
    "lat": 52.40654187,
    "lng": 9.711157344,
    "anim": "0",
    "title": "HEM",
    "infoopen": "0",
    "category": "1",
    "approved": "1",
    "retina": "0",
    "type": "0",
    "did": "",
    "other_data": "a:0:{}"
  },
  {
    "id": "",
    "map_id": 1,
    "address": "Dessauer Landstr. 82 6385 Aken",
    "description": "<p>Dessauer Landstr. 82<br/>6385 Aken</p>",
    "pic": "",
    "link": "",
    "icon": "",
    "lat": 51.85028,
    "lng": 12.089252,
    "anim": "0",
    "title": "HEM",
    "infoopen": "0",
    "category": "1",
    "approved": "1",
    "retina": "0",
    "type": "0",
    "did": "",
    "other_data": "a:0:{}"
  },
  {
    "id": "",
    "map_id": 1,
    "address": "Hafenstr. 28-30 27576 Bremerhaven",
    "description": "<p>Hafenstr. 28-30<br/>27576 Bremerhaven</p>",
    "pic": "",
    "link": "",
    "icon": "",
    "lat": 53.55150697,
    "lng": 8.581420601,
    "anim": "0",
    "title": "HEM",
    "infoopen": "0",
    "category": "1",
    "approved": "1",
    "retina": "0",
    "type": "0",
    "did": "",
    "other_data": "a:0:{}"
  },
  {
    "id": "",
    "map_id": 1,
    "address": "Heinrich-Von-Kleist-Str. 16 68766 Hockenheim",
    "description": "<p>Heinrich-Von-Kleist-Str. 16<br/>68766 Hockenheim</p>",
    "pic": "",
    "link": "",
    "icon": "",
    "lat": 49.311466,
    "lng": 8.556791,
    "anim": "0",
    "title": "HEM",
    "infoopen": "0",
    "category": "1",
    "approved": "1",
    "retina": "0",
    "type": "0",
    "did": "",
    "other_data": "a:0:{}"
  },
  {
    "id": "",
    "map_id": 1,
    "address": "Süllbergstr. 2 31832 Springe",
    "description": "<p>Süllbergstr. 2<br/>31832 Springe</p>",
    "pic": "",
    "link": "",
    "icon": "",
    "lat": 52.239048,
    "lng": 9.655892,
    "anim": "0",
    "title": "HEM",
    "infoopen": "0",
    "category": "1",
    "approved": "1",
    "retina": "0",
    "type": "0",
    "did": "",
    "other_data": "a:0:{}"
  },
  {
    "id": "",
    "map_id": 1,
    "address": "Alte Bundesstr. 9a 27616 Beverstedt",
    "description": "<p>Alte Bundesstr. 9a<br/>27616 Beverstedt</p>",
    "pic": "",
    "link": "",
    "icon": "",
    "lat": 53.43609,
    "lng": 8.818669,
    "anim": "0",
    "title": "HEM",
    "infoopen": "0",
    "category": "1",
    "approved": "1",
    "retina": "0",
    "type": "0",
    "did": "",
    "other_data": "a:0:{}"
  },
  {
    "id": "",
    "map_id": 1,
    "address": "Reichenbacher Str. 142a 8056 Zwickau",
    "description": "<p>Reichenbacher Str. 142a<br/>8056 Zwickau</p>",
    "pic": "",
    "link": "",
    "icon": "",
    "lat": 50.709282,
    "lng": 12.465172,
    "anim": "0",
    "title": "HEM",
    "infoopen": "0",
    "category": "1",
    "approved": "1",
    "retina": "0",
    "type": "0",
    "did": "",
    "other_data": "a:0:{}"
  },
  {
    "id": "",
    "map_id": 1,
    "address": "Mergentheimer Str. 65 97084 Würzburg",
    "description": "<p>Mergentheimer Str. 65<br/>97084 Würzburg</p>",
    "pic": "",
    "link": "",
    "icon": "",
    "lat": 49.766354,
    "lng": 9.946961,
    "anim": "0",
    "title": "HEM",
    "infoopen": "0",
    "category": "1",
    "approved": "1",
    "retina": "0",
    "type": "0",
    "did": "",
    "other_data": "a:0:{}"
  },
  {
    "id": "",
    "map_id": 1,
    "address": "Berliner Str. 140 13467 Berlin",
    "description": "<p>Berliner Str. 140<br/>13467 Berlin</p>",
    "pic": "",
    "link": "",
    "icon": "",
    "lat": 52.613346,
    "lng": 13.315172,
    "anim": "0",
    "title": "HEM",
    "infoopen": "0",
    "category": "1",
    "approved": "1",
    "retina": "0",
    "type": "0",
    "did": "",
    "other_data": "a:0:{}"
  },
  {
    "id": "",
    "map_id": 1,
    "address": "Winsener Str. 183 21077 Hamburg",
    "description": "<p>Winsener Str. 183<br/>21077 Hamburg</p>",
    "pic": "",
    "link": "",
    "icon": "",
    "lat": 53.42817,
    "lng": 9.982473,
    "anim": "0",
    "title": "HEM",
    "infoopen": "0",
    "category": "1",
    "approved": "1",
    "retina": "0",
    "type": "0",
    "did": "",
    "other_data": "a:0:{}"
  },
  {
    "id": "",
    "map_id": 1,
    "address": "Johann-Gottlob-Nathusius-Str. 14 39340 Haldensleben",
    "description": "<p>Johann-Gottlob-Nathusius-Str. 14<br/>39340 Haldensleben</p>",
    "pic": "",
    "link": "",
    "icon": "",
    "lat": 52.281734,
    "lng": 11.432491,
    "anim": "0",
    "title": "HEM",
    "infoopen": "0",
    "category": "1",
    "approved": "1",
    "retina": "0",
    "type": "0",
    "did": "",
    "other_data": "a:0:{}"
  },
  {
    "id": "",
    "map_id": 1,
    "address": "Preysingstr. 58 43952 85283 Wolnzach",
    "description": "<p>Preysingstr. 58 43952<br/>85283 Wolnzach</p>",
    "pic": "",
    "link": "",
    "icon": "",
    "lat": 48.59724,
    "lng": 11.63034,
    "anim": "0",
    "title": "HEM",
    "infoopen": "0",
    "category": "1",
    "approved": "1",
    "retina": "0",
    "type": "0",
    "did": "",
    "other_data": "a:0:{}"
  },
  {
    "id": "",
    "map_id": 1,
    "address": "Dresdner Str. 49 1796 Pirna",
    "description": "<p>Dresdner Str. 49<br/>1796 Pirna</p>",
    "pic": "",
    "link": "",
    "icon": "",
    "lat": 50.95647,
    "lng": 13.913139,
    "anim": "0",
    "title": "HEM",
    "infoopen": "0",
    "category": "1",
    "approved": "1",
    "retina": "0",
    "type": "0",
    "did": "",
    "other_data": "a:0:{}"
  },
  {
    "id": "",
    "map_id": 1,
    "address": "Zabel-Krüger-Damm 20 13469 Berlin",
    "description": "<p>Zabel-Krüger-Damm 20<br/>13469 Berlin</p>",
    "pic": "",
    "link": "",
    "icon": "",
    "lat": 52.608665,
    "lng": 13.327813,
    "anim": "0",
    "title": "HEM",
    "infoopen": "0",
    "category": "1",
    "approved": "1",
    "retina": "0",
    "type": "0",
    "did": "",
    "other_data": "a:0:{}"
  },
  {
    "id": "",
    "map_id": 1,
    "address": "Im Loffenkamp 2 31832 Springe",
    "description": "<p>Im Loffenkamp 2<br/>31832 Springe</p>",
    "pic": "",
    "link": "",
    "icon": "",
    "lat": 52.171078,
    "lng": 9.671846,
    "anim": "0",
    "title": "HEM",
    "infoopen": "0",
    "category": "1",
    "approved": "1",
    "retina": "0",
    "type": "0",
    "did": "",
    "other_data": "a:0:{}"
  },
  {
    "id": "",
    "map_id": 1,
    "address": "Kieler Str. 361-365 22525 Hamburg",
    "description": "<p>Kieler Str. 361-365<br/>22525 Hamburg</p>",
    "pic": "",
    "link": "",
    "icon": "",
    "lat": 53.58875,
    "lng": 9.930771,
    "anim": "0",
    "title": "HEM",
    "infoopen": "0",
    "category": "1",
    "approved": "1",
    "retina": "0",
    "type": "0",
    "did": "",
    "other_data": "a:0:{}"
  },
  {
    "id": "",
    "map_id": 1,
    "address": "Rosa-Luxemburg-Str. 20a 39319 Jerichow",
    "description": "<p>Rosa-Luxemburg-Str. 20a<br/>39319 Jerichow</p>",
    "pic": "",
    "link": "",
    "icon": "",
    "lat": 52.49291,
    "lng": 12.031032,
    "anim": "0",
    "title": "HEM",
    "infoopen": "0",
    "category": "1",
    "approved": "1",
    "retina": "0",
    "type": "0",
    "did": "",
    "other_data": "a:0:{}"
  },
  {
    "id": "",
    "map_id": 1,
    "address": "Südliche Hauptstr. 8 83700 Rottach-Egern",
    "description": "<p>Südliche Hauptstr. 8<br/>83700 Rottach-Egern</p>",
    "pic": "",
    "link": "",
    "icon": "",
    "lat": 47.68914,
    "lng": 11.768931,
    "anim": "0",
    "title": "HEM",
    "infoopen": "0",
    "category": "1",
    "approved": "1",
    "retina": "0",
    "type": "0",
    "did": "",
    "other_data": "a:0:{}"
  },
  {
    "id": "",
    "map_id": 1,
    "address": "Hannoversche Str. 16 31675 Bückeburg",
    "description": "<p>Hannoversche Str. 16<br/>31675 Bückeburg</p>",
    "pic": "",
    "link": "",
    "icon": "",
    "lat": 52.264214,
    "lng": 9.062632,
    "anim": "0",
    "title": "HEM",
    "infoopen": "0",
    "category": "1",
    "approved": "1",
    "retina": "0",
    "type": "0",
    "did": "",
    "other_data": "a:0:{}"
  },
  {
    "id": "",
    "map_id": 1,
    "address": "Tangstedter Landstr. 516 22851 Norderstedt",
    "description": "<p>Tangstedter Landstr. 516<br/>22851 Norderstedt</p>",
    "pic": "",
    "link": "",
    "icon": "",
    "lat": 53.68593,
    "lng": 10.035195,
    "anim": "0",
    "title": "HEM",
    "infoopen": "0",
    "category": "1",
    "approved": "1",
    "retina": "0",
    "type": "0",
    "did": "",
    "other_data": "a:0:{}"
  },
  {
    "id": "",
    "map_id": 1,
    "address": "Romantische Str. 14 86763 Möttingen",
    "description": "<p>Romantische Str. 14<br/>86763 Möttingen</p>",
    "pic": "",
    "link": "",
    "icon": "",
    "lat": 48.810783,
    "lng": 10.586646,
    "anim": "0",
    "title": "HEM",
    "infoopen": "0",
    "category": "1",
    "approved": "1",
    "retina": "0",
    "type": "0",
    "did": "",
    "other_data": "a:0:{}"
  },
  {
    "id": "",
    "map_id": 1,
    "address": "Gutenbergstr. 43891 21509 Glinde",
    "description": "<p>Gutenbergstr. 43891<br/>21509 Glinde</p>",
    "pic": "",
    "link": "",
    "icon": "",
    "lat": 53.524467,
    "lng": 10.228421,
    "anim": "0",
    "title": "HEM",
    "infoopen": "0",
    "category": "1",
    "approved": "1",
    "retina": "0",
    "type": "0",
    "did": "",
    "other_data": "a:0:{}"
  },
  {
    "id": "",
    "map_id": 1,
    "address": "Bundesstr. 4 79379 Müllheim",
    "description": "<p>Bundesstr. 4<br/>79379 Müllheim</p>",
    "pic": "",
    "link": "",
    "icon": "",
    "lat": 47.8116,
    "lng": 7.6102,
    "anim": "0",
    "title": "HEM",
    "infoopen": "0",
    "category": "1",
    "approved": "1",
    "retina": "0",
    "type": "0",
    "did": "",
    "other_data": "a:0:{}"
  },
  {
    "id": "",
    "map_id": 1,
    "address": "Döberitzer Str. 5a 14727 Premnitz",
    "description": "<p>Döberitzer Str. 5a<br/>14727 Premnitz</p>",
    "pic": "",
    "link": "",
    "icon": "",
    "lat": 52.560085,
    "lng": 12.328859,
    "anim": "0",
    "title": "HEM",
    "infoopen": "0",
    "category": "1",
    "approved": "1",
    "retina": "0",
    "type": "0",
    "did": "",
    "other_data": "a:0:{}"
  },
  {
    "id": "",
    "map_id": 1,
    "address": "Bremer Str. 117a 28816 Stuhr",
    "description": "<p>Bremer Str. 117a<br/>28816 Stuhr</p>",
    "pic": "",
    "link": "",
    "icon": "",
    "lat": 53.030586,
    "lng": 8.807484,
    "anim": "0",
    "title": "HEM",
    "infoopen": "0",
    "category": "1",
    "approved": "1",
    "retina": "0",
    "type": "0",
    "did": "",
    "other_data": "a:0:{}"
  },
  {
    "id": "",
    "map_id": 1,
    "address": "Göttinger Str. 50 31061 Alfeld",
    "description": "<p>Göttinger Str. 50<br/>31061 Alfeld</p>",
    "pic": "",
    "link": "",
    "icon": "",
    "lat": 51.97648,
    "lng": 9.814572,
    "anim": "0",
    "title": "HEM",
    "infoopen": "0",
    "category": "1",
    "approved": "1",
    "retina": "0",
    "type": "0",
    "did": "",
    "other_data": "a:0:{}"
  },
  {
    "id": "",
    "map_id": 1,
    "address": "Gronauer Str. 1 31036 Eime",
    "description": "<p>Gronauer Str. 1<br/>31036 Eime</p>",
    "pic": "",
    "link": "",
    "icon": "",
    "lat": 52.078453,
    "lng": 9.727583,
    "anim": "0",
    "title": "HEM",
    "infoopen": "0",
    "category": "1",
    "approved": "1",
    "retina": "0",
    "type": "0",
    "did": "",
    "other_data": "a:0:{}"
  },
  {
    "id": "",
    "map_id": 1,
    "address": "Industriestr. 29 7907 Schleiz",
    "description": "<p>Industriestr. 29<br/>7907 Schleiz</p>",
    "pic": "",
    "link": "",
    "icon": "",
    "lat": 50.549316,
    "lng": 11.788847,
    "anim": "0",
    "title": "HEM",
    "infoopen": "0",
    "category": "1",
    "approved": "1",
    "retina": "0",
    "type": "0",
    "did": "",
    "other_data": "a:0:{}"
  },
  {
    "id": "",
    "map_id": 1,
    "address": "Braunschweiger Str. 57 38259 Salzgitter",
    "description": "<p>Braunschweiger Str. 57<br/>38259 Salzgitter</p>",
    "pic": "",
    "link": "",
    "icon": "",
    "lat": 52.048626,
    "lng": 10.365053,
    "anim": "0",
    "title": "HEM",
    "infoopen": "0",
    "category": "1",
    "approved": "1",
    "retina": "0",
    "type": "0",
    "did": "",
    "other_data": "a:0:{}"
  },
  {
    "id": "",
    "map_id": 1,
    "address": "Sierksdorfer Str. 4a 23730 Neustadt In Holstein",
    "description": "<p>Sierksdorfer Str. 4a<br/>23730 Neustadt In Holstein</p>",
    "pic": "",
    "link": "",
    "icon": "",
    "lat": 54.097954,
    "lng": 10.790795,
    "anim": "0",
    "title": "HEM",
    "infoopen": "0",
    "category": "1",
    "approved": "1",
    "retina": "0",
    "type": "0",
    "did": "",
    "other_data": "a:0:{}"
  },
  {
    "id": "",
    "map_id": 1,
    "address": "Buxtehuder Str. 20 21698 Harsefeld",
    "description": "<p>Buxtehuder Str. 20<br/>21698 Harsefeld</p>",
    "pic": "",
    "link": "",
    "icon": "",
    "lat": 53.45517,
    "lng": 9.509766,
    "anim": "0",
    "title": "HEM",
    "infoopen": "0",
    "category": "1",
    "approved": "1",
    "retina": "0",
    "type": "0",
    "did": "",
    "other_data": "a:0:{}"
  },
  {
    "id": "",
    "map_id": 1,
    "address": "Gökerstr. 119 26384 Wilhelmshaven",
    "description": "<p>Gökerstr. 119<br/>26384 Wilhelmshaven</p>",
    "pic": "",
    "link": "",
    "icon": "",
    "lat": 53.53710274,
    "lng": 8.124574154,
    "anim": "0",
    "title": "HEM",
    "infoopen": "0",
    "category": "1",
    "approved": "1",
    "retina": "0",
    "type": "0",
    "did": "",
    "other_data": "a:0:{}"
  },
  {
    "id": "",
    "map_id": 1,
    "address": "Industriestr. 51 67063 Ludwigshafen",
    "description": "<p>Industriestr. 51<br/>67063 Ludwigshafen</p>",
    "pic": "",
    "link": "",
    "icon": "",
    "lat": 49.4884,
    "lng": 8.4048,
    "anim": "0",
    "title": "HEM",
    "infoopen": "0",
    "category": "1",
    "approved": "1",
    "retina": "0",
    "type": "0",
    "did": "",
    "other_data": "a:0:{}"
  },
  {
    "id": "",
    "map_id": 1,
    "address": "Hannoversche Str. 53 31180 Giesen",
    "description": "<p>Hannoversche Str. 53<br/>31180 Giesen</p>",
    "pic": "",
    "link": "",
    "icon": "",
    "lat": 52.201145,
    "lng": 9.91655,
    "anim": "0",
    "title": "HEM",
    "infoopen": "0",
    "category": "1",
    "approved": "1",
    "retina": "0",
    "type": "0",
    "did": "",
    "other_data": "a:0:{}"
  },
  {
    "id": "",
    "map_id": 1,
    "address": "Hauptstr. 11 21643 Beckdorf",
    "description": "<p>Hauptstr. 11<br/>21643 Beckdorf</p>",
    "pic": "",
    "link": "",
    "icon": "",
    "lat": 53.413944,
    "lng": 9.611062,
    "anim": "0",
    "title": "HEM",
    "infoopen": "0",
    "category": "1",
    "approved": "1",
    "retina": "0",
    "type": "0",
    "did": "",
    "other_data": "a:0:{}"
  },
  {
    "id": "",
    "map_id": 1,
    "address": "Hauptstr. 17 21755 Hechthausen",
    "description": "<p>Hauptstr. 17<br/>21755 Hechthausen</p>",
    "pic": "",
    "link": "",
    "icon": "",
    "lat": 53.64062,
    "lng": 9.240054,
    "anim": "0",
    "title": "HEM",
    "infoopen": "0",
    "category": "1",
    "approved": "1",
    "retina": "0",
    "type": "0",
    "did": "",
    "other_data": "a:0:{}"
  },
  {
    "id": "",
    "map_id": 1,
    "address": "Im Gewerbegebiet 2 38315 Schladen",
    "description": "<p>Im Gewerbegebiet 2<br/>38315 Schladen</p>",
    "pic": "",
    "link": "",
    "icon": "",
    "lat": 52.02925,
    "lng": 10.535395,
    "anim": "0",
    "title": "HEM",
    "infoopen": "0",
    "category": "1",
    "approved": "1",
    "retina": "0",
    "type": "0",
    "did": "",
    "other_data": "a:0:{}"
  },
  {
    "id": "",
    "map_id": 1,
    "address": "Eislebener Str. 38e 6268 Querfurt",
    "description": "<p>Eislebener Str. 38e<br/>6268 Querfurt</p>",
    "pic": "",
    "link": "",
    "icon": "",
    "lat": 51.38845,
    "lng": 11.592364,
    "anim": "0",
    "title": "HEM",
    "infoopen": "0",
    "category": "1",
    "approved": "1",
    "retina": "0",
    "type": "0",
    "did": "",
    "other_data": "a:0:{}"
  },
  {
    "id": "",
    "map_id": 1,
    "address": "Möllner Landstr. 4 22113 Oststeinbek",
    "description": "<p>Möllner Landstr. 4<br/>22113 Oststeinbek</p>",
    "pic": "",
    "link": "",
    "icon": "",
    "lat": 53.54208,
    "lng": 10.157198,
    "anim": "0",
    "title": "HEM",
    "infoopen": "0",
    "category": "1",
    "approved": "1",
    "retina": "0",
    "type": "0",
    "did": "",
    "other_data": "a:0:{}"
  },
  {
    "id": "",
    "map_id": 1,
    "address": "Pyrmonter Str. 48 33014 Bad Driburg",
    "description": "<p>Pyrmonter Str. 48<br/>33014 Bad Driburg</p>",
    "pic": "",
    "link": "",
    "icon": "",
    "lat": 51.74137027,
    "lng": 9.01936233,
    "anim": "0",
    "title": "HEM",
    "infoopen": "0",
    "category": "1",
    "approved": "1",
    "retina": "0",
    "type": "0",
    "did": "",
    "other_data": "a:0:{}"
  },
  {
    "id": "",
    "map_id": 1,
    "address": "Kattowitzer Str. 233 38226 Salzgitter",
    "description": "<p>Kattowitzer Str. 233<br/>38226 Salzgitter</p>",
    "pic": "",
    "link": "",
    "icon": "",
    "lat": 52.159172,
    "lng": 10.318422,
    "anim": "0",
    "title": "HEM",
    "infoopen": "0",
    "category": "1",
    "approved": "1",
    "retina": "0",
    "type": "0",
    "did": "",
    "other_data": "a:0:{}"
  },
  {
    "id": "",
    "map_id": 1,
    "address": "Reinstorfer Str. 9a 23992 Neukloster",
    "description": "<p>Reinstorfer Str. 9a<br/>23992 Neukloster</p>",
    "pic": "",
    "link": "",
    "icon": "",
    "lat": 53.860306,
    "lng": 11.676482,
    "anim": "0",
    "title": "HEM",
    "infoopen": "0",
    "category": "1",
    "approved": "1",
    "retina": "0",
    "type": "0",
    "did": "",
    "other_data": "a:0:{}"
  },
  {
    "id": "",
    "map_id": 1,
    "address": "Adlergestell 305 12489 Berlin",
    "description": "<p>Adlergestell 305<br/>12489 Berlin</p>",
    "pic": "",
    "link": "",
    "icon": "",
    "lat": 52.43057,
    "lng": 13.549101,
    "anim": "0",
    "title": "HEM",
    "infoopen": "0",
    "category": "1",
    "approved": "1",
    "retina": "0",
    "type": "0",
    "did": "",
    "other_data": "a:0:{}"
  },
  {
    "id": "",
    "map_id": 1,
    "address": "Nordring 62 47574 Goch",
    "description": "<p>Nordring 62<br/>47574 Goch</p>",
    "pic": "",
    "link": "",
    "icon": "",
    "lat": 51.682766,
    "lng": 6.148046,
    "anim": "0",
    "title": "HEM",
    "infoopen": "0",
    "category": "1",
    "approved": "1",
    "retina": "0",
    "type": "0",
    "did": "",
    "other_data": "a:0:{}"
  },